Results/Reports/Eclipses/Eclipses_h-1500_e01.csv

Spacecraft: JupiterExpress_Finite

Start Time (UTC)            Stop Time (UTC)               Duration (s)    Occ Body        Type        Event Number  Total Duration (s)
25 Feb 2032 05:34:04.943    25 Feb 2032 06:36:07.639      3722.6956234    Jupiter         Umbra       1             3722.6956234
25 Feb 2032 08:57:03.736    25 Feb 2032 10:11:30.661      4466.9250677    Jupiter         Umbra       2             4471.3252544
25 Feb 2032 10:11:30.661    25 Feb 2032 10:11:35.061      4.4001867296    Jupiter         Penumbra    2             4471.3252544
25 Feb 2032 12:32:21.660    25 Feb 2032 12:32:25.132      3.4722830169    Jupiter         Penumbra    3             4476.3469381
25 Feb 2032 12:32:25.132    25 Feb 2032 13:46:53.607      4468.4749499    Jupiter         Umbra       3             4476.3469381
25 Feb 2032 13:46:53.607    25 Feb 2032 13:46:58.007      4.3997051893    Jupiter         Penumbra    3             4476.3469381
25 Feb 2032 16:07:43.001    25 Feb 2032 16:07:46.470      3.4697747324    Jupiter         Penumbra    4             4473.5788324
25 Feb 2032 16:07:46.470    25 Feb 2032 17:22:16.579      4470.1090577    Jupiter         Umbra       4             4473.5788324
25 Feb 2032 19:43:04.633    25 Feb 2032 19:43:08.100      3.4661638085    Jupiter         Penumbra    5             4475.0501393
25 Feb 2032 19:43:08.100    25 Feb 2032 20:57:39.684      4471.5839755    Jupiter         Umbra       5             4475.0501393
25 Feb 2032 23:18:30.318    26 Feb 2032 00:33:02.996      4472.6779371    Jupiter         Umbra       6             4477.0741659
26 Feb 2032 00:33:02.996    26 Feb 2032 00:33:07.392      4.3962287949    Jupiter         Penumbra    6             4477.0741659
26 Feb 2032 02:53:53.282    26 Feb 2032 04:08:26.542      4473.2592732    Jupiter         Umbra       7             4473.2592732
26 Feb 2032 06:29:13.506    26 Feb 2032 06:29:16.959      3.4538769862    Jupiter         Penumbra    8             4476.7826460
26 Feb 2032 06:29:16.959    26 Feb 2032 07:43:50.288      4473.3287690    Jupiter         Umbra       8             4476.7826460
26 Feb 2032 10:04:41.137    26 Feb 2032 11:19:14.155      4473.0180711    Jupiter         Umbra       9             4477.4114679
26 Feb 2032 11:19:14.155    26 Feb 2032 11:19:18.548      4.3933967594    Jupiter         Penumbra    9             4477.4114679
26 Feb 2032 13:40:02.040    26 Feb 2032 13:40:05.489      3.4496059874    Jupiter         Penumbra    10            4475.9961435
26 Feb 2032 13:40:05.489    26 Feb 2032 14:54:38.036      4472.5465375    Jupiter         Umbra       10            4475.9961435
26 Feb 2032 17:15:29.680    26 Feb 2032 18:30:01.834      4472.1536145    Jupiter         Umbra       11            4476.5468327
26 Feb 2032 18:30:01.834    26 Feb 2032 18:30:06.227      4.3932182249    Jupiter         Penumbra    11            4476.5468327
26 Feb 2032 20:50:53.453    26 Feb 2032 22:05:25.484      4472.0311021    Jupiter         Umbra       12            4472.0311021
27 Feb 2032 00:26:13.255    27 Feb 2032 00:26:16.703      3.4481865121    Jupiter         Penumbra    13            4475.7202366
27 Feb 2032 00:26:16.703    27 Feb 2032 01:40:48.975      4472.2720501    Jupiter         Umbra       13            4475.7202366
27 Feb 2032 04:01:39.506    27 Feb 2032 05:16:12.351      4472.8446450    Jupiter         Umbra       14            4477.2375822
27 Feb 2032 05:16:12.351    27 Feb 2032 05:16:16.744      4.3929372216    Jupiter         Penumbra    14            4477.2375822
27 Feb 2032 07:37:02.107    27 Feb 2032 08:51:35.703      4473.5953582    Jupiter         Umbra       15            4473.5953582
27 Feb 2032 11:12:24.863    27 Feb 2032 12:26:59.146      4474.2830814    Jupiter         Umbra       16            4474.2830814
27 Feb 2032 14:47:44.712    27 Feb 2032 14:47:48.149      3.4370488487    Jupiter         Penumbra    17            4482.4677100
27 Feb 2032 14:47:48.149    27 Feb 2032 16:02:22.790      4474.6408879    Jupiter         Umbra       17            4482.4677100
27 Feb 2032 16:02:22.790    27 Feb 2032 16:02:27.179      4.3897732627    Jupiter         Penumbra    17            4482.4677100
27 Feb 2032 18:23:12.250    27 Feb 2032 19:37:46.703      4474.4525547    Jupiter         Umbra       18            4474.4525547
27 Feb 2032 21:58:33.847    27 Feb 2032 21:58:37.276      3.4289217554    Jupiter         Penumbra    19            4481.4368459
27 Feb 2032 21:58:37.276    27 Feb 2032 23:13:10.897      4473.6204247    Jupiter         Umbra       19            4481.4368459
27 Feb 2032 23:13:10.897    27 Feb 2032 23:13:15.284      4.3874994619    Jupiter         Penumbra    19            4481.4368459
28 Feb 2032 01:34:03.122    28 Feb 2032 02:48:35.320      4472.1980934    Jupiter         Umbra       20            4472.1980934
28 Feb 2032 05:09:29.494    28 Feb 2032 06:23:59.869      4470.3746655    Jupiter         Umbra       21            4470.3746655
28 Feb 2032 08:44:52.572    28 Feb 2032 08:44:55.999      3.4266246948    Jupiter         Penumbra    22            4476.2343652
28 Feb 2032 08:44:55.999    28 Feb 2032 09:59:24.419      4468.4199330    Jupiter         Umbra       22            4476.2343652
28 Feb 2032 09:59:24.419    28 Feb 2032 09:59:28.807      4.3878074968    Jupiter         Penumbra    22            4476.2343652
28 Feb 2032 12:20:22.239    28 Feb 2032 13:34:48.850      4466.6116912    Jupiter         Umbra       23            4466.6116912
28 Feb 2032 15:55:44.478    28 Feb 2032 15:55:47.911      3.4322064137    Jupiter         Penumbra    24            4472.9927991
28 Feb 2032 15:55:47.911    28 Feb 2032 17:10:13.081      4465.1702090    Jupiter         Umbra       24            4472.9927991
28 Feb 2032 17:10:13.081    28 Feb 2032 17:10:17.471      4.3903836748    Jupiter         Penumbra    24            4472.9927991
28 Feb 2032 19:31:12.867    28 Feb 2032 20:45:37.081      4464.2137970    Jupiter         Umbra       25            4464.2137970
28 Feb 2032 23:06:33.700    28 Feb 2032 23:06:37.139      3.4387329826    Jupiter         Penumbra    26            4471.5716409
28 Feb 2032 23:06:37.139    29 Feb 2032 00:21:00.879      4463.7398387    Jupiter         Umbra       26            4471.5716409
29 Feb 2032 00:21:00.879    29 Feb 2032 00:21:05.272      4.3930692365    Jupiter         Penumbra    26            4471.5716409
29 Feb 2032 02:42:00.916    29 Feb 2032 03:56:24.549      4463.6331976    Jupiter         Umbra       27            4468.0272249
29 Feb 2032 03:56:24.549    29 Feb 2032 03:56:28.944      4.3940272881    Jupiter         Penumbra    27            4468.0272249
29 Feb 2032 06:17:24.490    29 Feb 2032 07:31:48.192      4463.7014380    Jupiter         Umbra       28            4463.7014380
29 Feb 2032 09:52:44.722    29 Feb 2032 09:52:48.166      3.4434157424    Jupiter         Penumbra    29            4471.5701064
29 Feb 2032 09:52:48.166    29 Feb 2032 11:07:11.897      4463.7315280    Jupiter         Umbra       29            4471.5701064
29 Feb 2032 11:07:11.897    29 Feb 2032 11:07:16.292      4.3951626169    Jupiter         Penumbra    29            4471.5701064
29 Feb 2032 13:28:12.167    29 Feb 2032 14:42:35.722      4463.5554050    Jupiter         Umbra       30            4463.5554050
29 Feb 2032 17:03:33.120    29 Feb 2032 17:03:36.565      3.4449760336    Jupiter         Penumbra    31            4466.5496165
29 Feb 2032 17:03:36.565    29 Feb 2032 18:17:59.669      4463.1046405    Jupiter         Umbra       31            4466.5496165
29 Feb 2032 20:39:01.251    29 Feb 2032 21:53:23.684      4462.4336876    Jupiter         Umbra       32            4466.8308914
29 Feb 2032 21:53:23.684    29 Feb 2032 21:53:28.082      4.3972038198    Jupiter         Penumbra    32            4466.8308914
01 Mar 2032 00:14:22.525    01 Mar 2032 00:14:25.974      3.4492394887    Jupiter         Penumbra    33            4465.1507789
01 Mar 2032 00:14:25.974    01 Mar 2032 01:28:47.676      4461.7015394    Jupiter         Umbra       33            4465.1507789
01 Mar 2032 03:49:50.416    01 Mar 2032 05:04:11.539      4461.1229473    Jupiter         Umbra       34            4465.5230052
01 Mar 2032 05:04:11.539    01 Mar 2032 05:04:15.939      4.4000578579    Jupiter         Penumbra    34            4465.5230052
01 Mar 2032 07:25:14.282    01 Mar 2032 08:39:35.188      4460.9057286    Jupiter         Umbra       35            4460.9057286
01 Mar 2032 11:00:33.925    01 Mar 2032 11:00:37.385      3.4602992004    Jupiter         Penumbra    36            4464.6543617
01 Mar 2032 11:00:37.385    01 Mar 2032 12:14:58.579      4461.1940625    Jupiter         Umbra       36            4464.6543617
01 Mar 2032 14:35:59.701    01 Mar 2032 15:50:21.729      4462.0279219    Jupiter         Umbra       37            4466.4323011
01 Mar 2032 15:50:21.729    01 Mar 2032 15:50:26.134      4.4043791480    Jupiter         Penumbra    37            4466.4323011
01 Mar 2032 18:11:21.381    01 Mar 2032 19:25:44.708      4463.3270373    Jupiter         Umbra       38            4467.7320344
01 Mar 2032 19:25:44.708    01 Mar 2032 19:25:49.113      4.4049971038    Jupiter         Penumbra    38            4467.7320344
01 Mar 2032 21:46:42.731    01 Mar 2032 23:01:07.631      4464.9003138    Jupiter         Umbra       39            4464.9003138
02 Mar 2032 01:22:04.142    02 Mar 2032 02:36:30.626      4466.4836668    Jupiter         Umbra       40            4470.8881937
02 Mar 2032 02:36:30.626    02 Mar 2032 02:36:35.030      4.4045268791    Jupiter         Penumbra    40            4470.8881937
02 Mar 2032 04:57:22.540    02 Mar 2032 04:57:26.001      3.4613961820    Jupiter         Penumbra    41            4475.6679952
02 Mar 2032 04:57:26.001    02 Mar 2032 06:11:53.804      4467.8029126    Jupiter         Umbra       41            4475.6679952
02 Mar 2032 06:11:53.804    02 Mar 2032 06:11:58.208      4.4036863837    Jupiter         Penumbra    41            4475.6679952
02 Mar 2032 08:32:48.585    02 Mar 2032 09:47:17.232      4468.6468894    Jupiter         Umbra       42            4468.6468894
02 Mar 2032 12:08:11.985    02 Mar 2032 13:22:40.912      4468.9267988    Jupiter         Umbra       43            4473.3287621
02 Mar 2032 13:22:40.912    02 Mar 2032 13:22:45.314      4.4019632740    Jupiter         Penumbra    43            4473.3287621
02 Mar 2032 15:43:32.635    02 Mar 2032 15:43:36.088      3.4531043842    Jupiter         Penumbra    44            4476.5534315
02 Mar 2032 15:43:36.088    02 Mar 2032 16:58:04.787      4468.6988121    Jupiter         Umbra       44            4476.5534315
02 Mar 2032 16:58:04.787    02 Mar 2032 16:58:09.189      4.4015150517    Jupiter         Penumbra    44            4476.5534315
02 Mar 2032 19:19:00.616    02 Mar 2032 20:33:28.757      4468.1410325    Jupiter         Umbra       45            4468.1410325
02 Mar 2032 22:54:21.762    02 Mar 2032 22:54:25.214      3.4520451212    Jupiter         Penumbra    46            4475.3494984
02 Mar 2032 22:54:25.214    03 Mar 2032 00:08:52.710      4467.4956345    Jupiter         Umbra       46            4475.3494984
03 Mar 2032 00:08:52.710    03 Mar 2032 00:08:57.111      4.4018186862    Jupiter         Penumbra    46            4475.3494984
03 Mar 2032 02:29:49.549    03 Mar 2032 03:44:16.547      4466.9988534    Jupiter         Umbra       47            4466.9988534
03 Mar 2032 06:05:13.398    03 Mar 2032 07:19:40.218      4466.8198738    Jupiter         Umbra       48            4466.8198738
03 Mar 2032 09:40:33.247    03 Mar 2032 09:40:36.702      3.4547118237    Jupiter         Penumbra    49            4474.8780729
03 Mar 2032 09:40:36.702    03 Mar 2032 10:55:03.722      4467.0200123    Jupiter         Umbra       49            4474.8780729
03 Mar 2032 10:55:03.722    03 Mar 2032 10:55:08.125      4.4033488026    Jupiter         Penumbra    49            4474.8780729
03 Mar 2032 13:15:59.576    03 Mar 2032 14:30:27.116      4467.5398822    Jupiter         Umbra       50            4467.5398822
03 Mar 2032 16:51:22.280    03 Mar 2032 18:05:50.494      4468.2141392    Jupiter         Umbra       51            4468.2141392
03 Mar 2032 20:26:41.699    03 Mar 2032 20:26:45.151      3.4514736850    Jupiter         Penumbra    52            4476.6686278
03 Mar 2032 20:26:45.151    03 Mar 2032 21:41:13.965      4468.8147414    Jupiter         Umbra       52            4476.6686278
03 Mar 2032 21:41:13.965    03 Mar 2032 21:41:18.368      4.4024127536    Jupiter         Penumbra    52            4476.6686278
04 Mar 2032 00:02:08.500    04 Mar 2032 01:16:37.617      4469.1162887    Jupiter         Umbra       53            4469.1162887
04 Mar 2032 03:37:32.526    04 Mar 2032 04:52:01.491      4468.9649304    Jupiter         Umbra       54            4473.3657804
04 Mar 2032 04:52:01.491    04 Mar 2032 04:52:05.891      4.4008499477    Jupiter         Penumbra    54            4473.3657804
04 Mar 2032 07:12:53.801    04 Mar 2032 07:12:57.245      3.4437394934    Jupiter         Penumbra    55            4471.7708176
04 Mar 2032 07:12:57.245    04 Mar 2032 08:27:25.572      4468.3270781    Jupiter         Umbra       55            4471.7708176
04 Mar 2032 10:48:22.493    04 Mar 2032 12:02:49.792      4467.2993999    Jupiter         Umbra       56            4467.2993999
04 Mar 2032 14:23:44.530    04 Mar 2032 14:23:47.973      3.4425683320    Jupiter         Penumbra    57            4473.9198642
04 Mar 2032 14:23:47.973    04 Mar 2032 15:38:14.049      4466.0766640    Jupiter         Umbra       57            4473.9198642
04 Mar 2032 15:38:14.049    04 Mar 2032 15:38:18.450      4.4006318087    Jupiter         Penumbra    57            4473.9198642
04 Mar 2032 17:59:13.347    04 Mar 2032 19:13:38.238      4464.8910451    Jupiter         Umbra       58            4464.8910451
04 Mar 2032 21:34:34.887    04 Mar 2032 21:34:38.333      3.4453255590    Jupiter         Penumbra    59            4471.7935461
04 Mar 2032 21:34:38.333    04 Mar 2032 22:49:02.279      4463.9460442    Jupiter         Umbra       59            4471.7935461
04 Mar 2032 22:49:02.279    04 Mar 2032 22:49:06.681      4.4021763839    Jupiter         Penumbra    59            4471.7935461
05 Mar 2032 01:10:02.776    05 Mar 2032 02:24:26.140      4463.3640876    Jupiter         Umbra       60            4463.3640876
05 Mar 2032 04:45:23.245    05 Mar 2032 04:45:26.693      3.4483367577    Jupiter         Penumbra    61            4466.6021911
05 Mar 2032 04:45:26.693    05 Mar 2032 05:59:49.847      4463.1538544    Jupiter         Umbra       61            4466.6021911
05 Mar 2032 08:20:50.271    05 Mar 2032 09:35:13.477      4463.2062436    Jupiter         Umbra       62            4467.6099979
05 Mar 2032 09:35:13.477    05 Mar 2032 09:35:17.881      4.4037542772    Jupiter         Penumbra    62            4467.6099979
05 Mar 2032 11:56:13.825    05 Mar 2032 13:10:37.143      4463.3178321    Jupiter         Umbra       63            4463.3178321
05 Mar 2032 15:31:34.270    05 Mar 2032 15:31:37.716      3.4465111792    Jupiter         Penumbra    64            4471.0916389
05 Mar 2032 15:31:37.716    05 Mar 2032 16:46:00.958      4463.2419562    Jupiter         Umbra       64            4471.0916389
05 Mar 2032 16:46:00.958    05 Mar 2032 16:46:05.361      4.4031715253    Jupiter         Penumbra    64            4471.0916389
05 Mar 2032 19:07:02.252    05 Mar 2032 20:21:25.009      4462.7568458    Jupiter         Umbra       65            4462.7568458
05 Mar 2032 22:42:24.152    05 Mar 2032 22:42:27.595      3.4432214918    Jupiter         Penumbra    66            4465.1764131
05 Mar 2032 22:42:27.595    05 Mar 2032 23:56:49.328      4461.7331916    Jupiter         Umbra       66            4465.1764131
06 Mar 2032 02:17:53.707    06 Mar 2032 03:32:13.883      4460.1754765    Jupiter         Umbra       67            4464.5781671
06 Mar 2032 03:32:13.883    06 Mar 2032 03:32:18.285      4.4026906136    Jupiter         Penumbra    67            4464.5781671
06 Mar 2032 05:53:20.363    06 Mar 2032 07:07:38.584      4458.2210715    Jupiter         Umbra       68            4458.2210715
06 Mar 2032 09:28:43.764    06 Mar 2032 09:28:47.211      3.4465457546    Jupiter         Penumbra    69            4463.9510444
06 Mar 2032 09:28:47.211    06 Mar 2032 10:43:03.310      4456.0995638    Jupiter         Umbra       69            4463.9510444
06 Mar 2032 10:43:03.310    06 Mar 2032 10:43:07.715      4.4049348682    Jupiter         Penumbra    69            4463.9510444
06 Mar 2032 13:04:13.865    06 Mar 2032 14:18:27.935      4454.0699203    Jupiter         Umbra       70            4454.0699203
06 Mar 2032 16:39:40.004    06 Mar 2032 17:53:52.361      4452.3571599    Jupiter         Umbra       71            4456.7663576
06 Mar 2032 17:53:52.361    06 Mar 2032 17:53:56.770      4.4091976946    Jupiter         Penumbra    71            4456.7663576
06 Mar 2032 20:15:01.973    06 Mar 2032 20:15:05.434      3.4614250995    Jupiter         Penumbra    72            4454.5658823
06 Mar 2032 20:15:05.434    06 Mar 2032 21:29:16.538      4451.1044572    Jupiter         Umbra       72            4454.5658823
06 Mar 2032 23:50:30.129    07 Mar 2032 01:04:40.477      4450.3476173    Jupiter         Umbra       73            4450.3476173
07 Mar 2032 03:25:54.222    07 Mar 2032 04:40:04.237      4450.0142216    Jupiter         Umbra       74            4454.4301175
07 Mar 2032 04:40:04.237    07 Mar 2032 04:40:08.653      4.4158958830    Jupiter         Penumbra    74            4454.4301175
07 Mar 2032 07:01:14.489    07 Mar 2032 07:01:17.965      3.4758027876    Jupiter         Penumbra    75            4453.4234681
07 Mar 2032 07:01:17.965    07 Mar 2032 08:15:27.913      4449.9476653    Jupiter         Umbra       75            4453.4234681
07 Mar 2032 10:36:41.649    07 Mar 2032 11:50:51.603      4449.9535934    Jupiter         Umbra       76            4454.3726652
07 Mar 2032 11:50:51.603    07 Mar 2032 11:50:56.022      4.4190717861    Jupiter         Penumbra    76            4454.3726652
07 Mar 2032 14:12:02.036    07 Mar 2032 14:12:05.518      3.4821985988    Jupiter         Penumbra    77            4453.3408751
07 Mar 2032 14:12:05.518    07 Mar 2032 15:26:15.377      4449.8586765    Jupiter         Umbra       77            4453.3408751
07 Mar 2032 17:47:29.688    07 Mar 2032 19:01:39.254      4449.5666865    Jupiter         Umbra       78            4449.5666865
07 Mar 2032 21:22:54.108    07 Mar 2032 22:37:03.198      4449.0902846    Jupiter         Umbra       79            4453.5140285
07 Mar 2032 22:37:03.198    07 Mar 2032 22:37:07.622      4.4237438589    Jupiter         Penumbra    79            4453.5140285
08 Mar 2032 00:58:18.578    08 Mar 2032 02:12:27.125      4448.5471600    Jupiter         Umbra       80            4448.5471600
08 Mar 2032 04:33:42.806    08 Mar 2032 05:47:50.930      4448.1239256    Jupiter         Umbra       81            4452.5521837
08 Mar 2032 05:47:50.930    08 Mar 2032 05:47:55.358      4.4282581424    Jupiter         Penumbra    81            4452.5521837
08 Mar 2032 08:09:02.990    08 Mar 2032 08:09:06.495      3.5044770688    Jupiter         Penumbra    82            4455.9571240
08 Mar 2032 08:09:06.495    08 Mar 2032 09:23:14.516      4448.0218485    Jupiter         Umbra       82            4455.9571240
08 Mar 2032 09:23:14.516    08 Mar 2032 09:23:18.947      4.4307984877    Jupiter         Penumbra    82            4455.9571240
08 Mar 2032 11:44:29.423    08 Mar 2032 12:58:37.825      4448.4013343    Jupiter         Umbra       83            4448.4013343
08 Mar 2032 15:19:51.511    08 Mar 2032 16:34:00.850      4449.3385049    Jupiter         Umbra       84            4453.7738786
08 Mar 2032 16:34:00.850    08 Mar 2032 16:34:05.285      4.4353737496    Jupiter         Penumbra    84            4453.7738786
08 Mar 2032 18:55:12.845    08 Mar 2032 20:09:23.646      4450.8013332    Jupiter         Umbra       85            4455.2382994
08 Mar 2032 20:09:23.646    08 Mar 2032 20:09:28.083      4.4369661016    Jupiter         Penumbra    85            4455.2382994
08 Mar 2032 22:30:33.670    08 Mar 2032 23:44:46.318      4452.6483875    Jupiter         Umbra       86            4452.6483875
09 Mar 2032 02:05:54.341    09 Mar 2032 03:20:08.994      4454.6533661    Jupiter         Umbra       87            4454.6533661
09 Mar 2032 05:41:11.717    09 Mar 2032 05:41:15.242      3.5249400185    Jupiter         Penumbra    88            4464.5195694
09 Mar 2032 05:41:15.242    09 Mar 2032 06:55:31.798      4456.5564519    Jupiter         Umbra       88            4464.5195694
09 Mar 2032 06:55:31.798    09 Mar 2032 06:55:36.236      4.4381774962    Jupiter         Penumbra    88            4464.5195694
09 Mar 2032 09:16:33.160    09 Mar 2032 09:16:36.684      3.5240706056    Jupiter         Penumbra    89            4466.0923613
09 Mar 2032 09:16:36.684    09 Mar 2032 10:30:54.814      4458.1304488    Jupiter         Umbra       89            4466.0923613
09 Mar 2032 10:30:54.814    09 Mar 2032 10:30:59.252      4.4378418010    Jupiter         Penumbra    89            4466.0923613
09 Mar 2032 12:51:58.825    09 Mar 2032 14:06:18.068      4459.2433238    Jupiter         Umbra       90            4459.2433238
09 Mar 2032 16:27:21.628    09 Mar 2032 17:41:41.523      4459.8943399    Jupiter         Umbra       91            4464.3317938
09 Mar 2032 17:41:41.523    09 Mar 2032 17:41:45.960      4.4374539284    Jupiter         Penumbra    91            4464.3317938
09 Mar 2032 20:02:44.881    09 Mar 2032 21:17:05.090      4460.2088719    Jupiter         Umbra       92            4460.2088719
09 Mar 2032 23:38:04.740    09 Mar 2032 23:38:08.263      3.5227925749    Jupiter         Penumbra    93            4463.9183644
09 Mar 2032 23:38:08.263    10 Mar 2032 00:52:28.659      4460.3955718    Jupiter         Umbra       93            4463.9183644
10 Mar 2032 03:13:31.442    10 Mar 2032 04:27:52.126      4460.6837964    Jupiter         Umbra       94            4465.1229740
10 Mar 2032 04:27:52.126    10 Mar 2032 04:27:56.565      4.4391776668    Jupiter         Penumbra    94            4465.1229740
10 Mar 2032 06:48:54.162    10 Mar 2032 08:03:15.423      4461.2611922    Jupiter         Umbra       95            4461.2611922
10 Mar 2032 10:24:12.780    10 Mar 2032 10:24:16.309      3.5281769000    Jupiter         Penumbra    96            4465.7542093
10 Mar 2032 10:24:16.309    10 Mar 2032 11:38:38.535      4462.2260324    Jupiter         Umbra       96            4465.7542093
10 Mar 2032 13:59:34.410    10 Mar 2032 13:59:37.939      3.5292581655    Jupiter         Penumbra    97            4471.5326883
10 Mar 2032 13:59:37.939    10 Mar 2032 15:14:01.502      4463.5624055    Jupiter         Umbra       97            4471.5326883
10 Mar 2032 15:14:01.502    10 Mar 2032 15:14:05.943      4.4410246192    Jupiter         Penumbra    97            4471.5326883
10 Mar 2032 17:34:59.268    10 Mar 2032 18:49:24.411      4465.1423607    Jupiter         Umbra       98            4469.5832496
10 Mar 2032 18:49:24.411    10 Mar 2032 18:49:28.852      4.4408888323    Jupiter         Penumbra    98            4469.5832496
10 Mar 2032 21:10:20.614    10 Mar 2032 22:24:47.371      4466.7566619    Jupiter         Umbra       99            4466.7566619
11 Mar 2032 00:45:42.310    11 Mar 2032 02:00:10.481      4468.1712419    Jupiter         Umbra       100           4468.1712419
11 Mar 2032 04:21:04.607    11 Mar 2032 05:35:33.803      4469.1962854    Jupiter         Umbra       101           4473.6348979
11 Mar 2032 05:35:33.803    11 Mar 2032 05:35:38.242      4.4386125170    Jupiter         Penumbra    101           4473.6348979
11 Mar 2032 07:56:24.075    11 Mar 2032 07:56:27.596      3.5203333246    Jupiter         Penumbra    102           4473.2662147
11 Mar 2032 07:56:27.596    11 Mar 2032 09:10:57.342      4469.7458813    Jupiter         Umbra       102           4473.2662147
11 Mar 2032 11:31:51.180    11 Mar 2032 12:46:21.045      4469.8645333    Jupiter         Umbra       103           4474.3019608
11 Mar 2032 12:46:21.045    11 Mar 2032 12:46:25.482      4.4374275254    Jupiter         Penumbra    103           4474.3019608
11 Mar 2032 15:07:11.592    11 Mar 2032 15:07:15.109      3.5171027295    Jupiter         Penumbra    104           4477.6661129
11 Mar 2032 15:07:15.109    11 Mar 2032 16:21:44.820      4469.7116429    Jupiter         Umbra       104           4477.6661129
11 Mar 2032 16:21:44.820    11 Mar 2032 16:21:49.258      4.4373671757    Jupiter         Penumbra    104           4477.6661129
11 Mar 2032 18:42:39.052    11 Mar 2032 19:57:08.562      4469.5100309    Jupiter         Umbra       105           4469.5100309
11 Mar 2032 22:18:02.700    11 Mar 2032 23:32:32.180      4469.4802609    Jupiter         Umbra       106           4473.9183253
11 Mar 2032 23:32:32.180    11 Mar 2032 23:32:36.619      4.4380643405    Jupiter         Penumbra    106           4473.9183253
12 Mar 2032 01:53:22.330    12 Mar 2032 01:53:25.848      3.5181921674    Jupiter         Penumbra    107           4473.2981265
12 Mar 2032 01:53:25.848    12 Mar 2032 03:07:55.628      4469.7799343    Jupiter         Umbra       107           4473.2981265
12 Mar 2032 05:28:44.933    12 Mar 2032 05:28:48.451      3.5185284913    Jupiter         Penumbra    108           4473.9792225
12 Mar 2032 05:28:48.451    12 Mar 2032 06:43:18.912      4470.4606940    Jupiter         Umbra       108           4473.9792225
12 Mar 2032 09:04:10.648    12 Mar 2032 10:18:42.098      4471.4504166    Jupiter         Umbra       109           4475.8887915
12 Mar 2032 10:18:42.098    12 Mar 2032 10:18:46.536      4.4383748900    Jupiter         Penumbra    109           4475.8887915
12 Mar 2032 12:39:32.726    12 Mar 2032 13:54:05.290      4472.5647808    Jupiter         Umbra       110           4472.5647808
12 Mar 2032 16:14:51.546    12 Mar 2032 16:14:55.060      3.5132849822    Jupiter         Penumbra    111           4477.0624737
12 Mar 2032 16:14:55.060    12 Mar 2032 17:29:28.609      4473.5491888    Jupiter         Umbra       111           4477.0624737
12 Mar 2032 19:50:14.499    12 Mar 2032 19:50:18.008      3.5095728468    Jupiter         Penumbra    112           4482.0906878
12 Mar 2032 19:50:18.008    12 Mar 2032 21:04:52.154      4474.1456312    Jupiter         Umbra       112           4482.0906878
12 Mar 2032 21:04:52.154    12 Mar 2032 21:04:56.590      4.4354837621    Jupiter         Penumbra    112           4482.0906878
12 Mar 2032 23:25:41.811    13 Mar 2032 00:40:15.980      4474.1685898    Jupiter         Umbra       113           4474.1685898
13 Mar 2032 03:01:03.012    13 Mar 2032 03:01:06.514      3.5024754703    Jupiter         Penumbra    114           4477.0655088
13 Mar 2032 03:01:06.514    13 Mar 2032 04:15:40.077      4473.5630334    Jupiter         Umbra       114           4477.0655088
13 Mar 2032 06:36:31.953    13 Mar 2032 07:51:04.375      4472.4222895    Jupiter         Umbra       115           4476.8556754
13 Mar 2032 07:51:04.375    13 Mar 2032 07:51:08.808      4.4333859812    Jupiter         Penumbra    115           4476.8556754
13 Mar 2032 10:11:54.302    13 Mar 2032 10:11:57.802      3.5000375938    Jupiter         Penumbra    116           4474.4590272
13 Mar 2032 10:11:57.802    13 Mar 2032 11:26:28.761      4470.9589896    Jupiter         Umbra       116           4474.4590272
13 Mar 2032 13:47:23.665    13 Mar 2032 15:01:53.110      4469.4443981    Jupiter         Umbra       117           4473.8790357
13 Mar 2032 15:01:53.110    13 Mar 2032 15:01:57.544      4.4346376089    Jupiter         Penumbra    117           4473.8790357
13 Mar 2032 17:22:49.173    13 Mar 2032 18:37:17.311      4468.1380898    Jupiter         Umbra       118           4468.1380898
13 Mar 2032 20:58:14.072    13 Mar 2032 22:12:41.301      4467.2286726    Jupiter         Umbra       119           4471.6660140
13 Mar 2032 22:12:41.301    13 Mar 2032 22:12:45.738      4.4373414014    Jupiter         Penumbra    119           4471.6660140
14 Mar 2032 00:33:34.762    14 Mar 2032 00:33:38.272      3.5098280758    Jupiter         Penumbra    120           4470.3062453
14 Mar 2032 00:33:38.272    14 Mar 2032 01:48:05.068      4466.7964172    Jupiter         Umbra       120           4470.3062453
14 Mar 2032 04:09:01.858    14 Mar 2032 05:23:28.659      4466.8018430    Jupiter         Umbra       121           4466.8018430
14 Mar 2032 07:44:21.545    14 Mar 2032 07:44:25.059      3.5145359812    Jupiter         Penumbra    122           4475.0569972
14 Mar 2032 07:44:25.059    14 Mar 2032 08:58:52.161      4467.1018433    Jupiter         Umbra       122           4475.0569972
14 Mar 2032 08:58:52.161    14 Mar 2032 08:58:56.602      4.4406178873    Jupiter         Penumbra    122           4475.0569972
14 Mar 2032 11:19:44.665    14 Mar 2032 11:19:48.181      3.5157083999    Jupiter         Penumbra    123           4471.0079841
14 Mar 2032 11:19:48.181    14 Mar 2032 12:34:15.673      4467.4922757    Jupiter         Umbra       123           4471.0079841
14 Mar 2032 14:55:11.507    14 Mar 2032 16:09:39.277      4467.7700434    Jupiter         Umbra       124           4467.7700434
14 Mar 2032 18:30:31.695    14 Mar 2032 18:30:35.212      3.5168607021    Jupiter         Penumbra    125           4475.7573567
14 Mar 2032 18:30:35.212    14 Mar 2032 19:45:03.011      4467.7985039    Jupiter         Umbra       125           4475.7573567
14 Mar 2032 19:45:03.011    14 Mar 2032 19:45:07.453      4.4419921003    Jupiter         Penumbra    125           4475.7573567
14 Mar 2032 22:05:59.301    14 Mar 2032 23:20:26.854      4467.5533572    Jupiter         Umbra       126           4467.5533572
15 Mar 2032 01:41:23.605    15 Mar 2032 02:55:50.736      4467.1311469    Jupiter         Umbra       127           4471.5748438
15 Mar 2032 02:55:50.736    15 Mar 2032 02:55:55.180      4.4436969794    Jupiter         Penumbra    127           4471.5748438
15 Mar 2032 05:16:44.313    15 Mar 2032 05:16:47.835      3.5222689155    Jupiter         Penumbra    128           4474.6874753
15 Mar 2032 05:16:47.835    15 Mar 2032 06:31:14.555      4466.7201578    Jupiter         Umbra       128           4474.6874753
15 Mar 2032 06:31:14.555    15 Mar 2032 06:31:19.000      4.4450485613    Jupiter         Penumbra    128           4474.6874753
15 Mar 2032 08:52:11.665    15 Mar 2032 10:06:38.209      4466.5445339    Jupiter         Umbra       129           4466.5445339
15 Mar 2032 12:27:34.820    15 Mar 2032 13:42:01.622      4466.8016677    Jupiter         Umbra       130           4471.2498519
15 Mar 2032 13:42:01.622    15 Mar 2032 13:42:06.070      4.4481842313    Jupiter         Penumbra    130           4471.2498519
15 Mar 2032 16:02:53.626    15 Mar 2032 16:02:57.160      3.5332135856    Jupiter         Penumbra    131           4475.5923789
15 Mar 2032 16:02:57.160    15 Mar 2032 17:17:24.769      4467.6096452    Jupiter         Umbra       131           4475.5923789
15 Mar 2032 17:17:24.769    15 Mar 2032 17:17:29.219      4.4495200971    Jupiter         Penumbra    131           4475.5923789
15 Mar 2032 19:38:18.712    15 Mar 2032 20:52:47.685      4468.9734712    Jupiter         Umbra       132           4468.9734712
15 Mar 2032 23:13:39.684    16 Mar 2032 00:28:10.459      4470.7745313    Jupiter         Umbra       133           4470.7745313
16 Mar 2032 02:49:00.425    16 Mar 2032 04:03:33.214      4472.7886870    Jupiter         Umbra       134           4477.2390746
16 Mar 2032 04:03:33.214    16 Mar 2032 04:03:37.664      4.4503876241    Jupiter         Penumbra    134           4477.2390746
16 Mar 2032 06:24:21.344    16 Mar 2032 07:38:56.079      4474.7341307    Jupiter         Umbra       135           4474.7341307
16 Mar 2032 09:59:42.812    16 Mar 2032 11:14:19.153      4476.3413093    Jupiter         Umbra       136           4476.3413093
16 Mar 2032 13:35:01.528    16 Mar 2032 13:35:05.057      3.5287910840    Jupiter         Penumbra    137           4485.4025053
16 Mar 2032 13:35:05.057    16 Mar 2032 14:49:42.484      4477.4263636    Jupiter         Umbra       137           4485.4025053
16 Mar 2032 14:49:42.484    16 Mar 2032 14:49:46.931      4.4473506510    Jupiter         Penumbra    137           4485.4025053
16 Mar 2032 17:10:24.585    16 Mar 2032 17:10:28.111      3.5254366463    Jupiter         Penumbra    138           4481.4680611
16 Mar 2032 17:10:28.111    16 Mar 2032 18:25:06.053      4477.9426245    Jupiter         Umbra       138           4481.4680611
16 Mar 2032 20:45:51.799    16 Mar 2032 22:00:29.788      4477.9891504    Jupiter         Umbra       139           4477.9891504
17 Mar 2032 00:21:12.288    17 Mar 2032 00:21:15.809      3.5212850897    Jupiter         Penumbra    140           4485.7399476
17 Mar 2032 00:21:15.809    17 Mar 2032 01:35:53.582      4477.7730123    Jupiter         Umbra       140           4485.7399476
17 Mar 2032 01:35:53.582    17 Mar 2032 01:35:58.028      4.4456501724    Jupiter         Penumbra    140           4485.7399476
17 Mar 2032 03:56:39.781    17 Mar 2032 05:11:17.327      4477.5451607    Jupiter         Umbra       141           4477.5451607
17 Mar 2032 07:32:03.408    17 Mar 2032 08:46:40.938      4477.5296842    Jupiter         Umbra       142           4481.9756864
17 Mar 2032 08:46:40.938    17 Mar 2032 08:46:45.384      4.4460022124    Jupiter         Penumbra    142           4481.9756864
17 Mar 2032 11:07:22.995    17 Mar 2032 11:07:26.516      3.5208852729    Jupiter         Penumbra    143           4485.8331853
17 Mar 2032 11:07:26.516    17 Mar 2032 12:22:04.382      4477.8661382    Jupiter         Umbra       143           4485.8331853
17 Mar 2032 12:22:04.382    17 Mar 2032 12:22:08.828      4.4461618876    Jupiter         Penumbra    143           4485.8331853
17 Mar 2032 14:42:49.105    17 Mar 2032 15:57:27.681      4478.5754427    Jupiter         Umbra       144           4478.5754427
17 Mar 2032 18:18:11.353    17 Mar 2032 19:32:50.907      4479.5539396    Jupiter         Umbra       145           4483.9994866
17 Mar 2032 19:32:50.907    17 Mar 2032 19:32:55.352      4.4455470750    Jupiter         Penumbra    145           4483.9994866
17 Mar 2032 21:53:33.566    17 Mar 2032 23:08:14.164      4480.5982968    Jupiter         Umbra       146           4485.0429468
17 Mar 2032 23:08:14.164    17 Mar 2032 23:08:18.609      4.4446500018    Jupiter         Penumbra    146           4485.0429468
18 Mar 2032 01:28:52.585    18 Mar 2032 01:28:56.098      3.5130385542    Jupiter         Penumbra    147           4484.9731750
18 Mar 2032 01:28:56.098    18 Mar 2032 02:43:37.558      4481.4601365    Jupiter         Umbra       147           4484.9731750
18 Mar 2032 05:04:19.245    18 Mar 2032 06:19:01.164      4481.9189011    Jupiter         Umbra       148           4486.3610856
18 Mar 2032 06:19:01.164    18 Mar 2032 06:19:05.606      4.4421844650    Jupiter         Penumbra    148           4486.3610856
18 Mar 2032 08:39:43.154    18 Mar 2032 09:54:25.005      4481.8506701    Jupiter         Umbra       149           4481.8506701
18 Mar 2032 12:15:04.277    18 Mar 2032 12:15:07.778      3.5013124812    Jupiter         Penumbra    150           4484.7688127
18 Mar 2032 12:15:07.778    18 Mar 2032 13:29:49.045      4481.2675002    Jupiter         Umbra       150           4484.7688127
18 Mar 2032 15:50:32.891    18 Mar 2032 17:05:13.203      4480.3116942    Jupiter         Umbra       151           4484.7514659
18 Mar 2032 17:05:13.203    18 Mar 2032 17:05:17.643      4.4397717342    Jupiter         Penumbra    151           4484.7514659
18 Mar 2032 19:25:54.665    18 Mar 2032 19:25:58.162      3.4977839096    Jupiter         Penumbra    152           4482.7065483
18 Mar 2032 19:25:58.162    18 Mar 2032 20:40:37.371      4479.2087644    Jupiter         Umbra       152           4482.7065483
18 Mar 2032 23:01:23.251    19 Mar 2032 00:16:01.451      4478.1998525    Jupiter         Umbra       153           4482.6398644
19 Mar 2032 00:16:01.451    19 Mar 2032 00:16:05.891      4.4400118757    Jupiter         Penumbra    153           4482.6398644
19 Mar 2032 02:36:44.403    19 Mar 2032 02:36:47.901      3.4978844924    Jupiter         Penumbra    154           4480.9733042
19 Mar 2032 02:36:47.901    19 Mar 2032 03:51:25.377      4477.4754197    Jupiter         Umbra       154           4480.9733042
19 Mar 2032 06:12:12.011    19 Mar 2032 07:26:49.136      4477.1256762    Jupiter         Umbra       155           4477.1256762
19 Mar 2032 09:47:32.163    19 Mar 2032 09:47:35.661      3.4976009745    Jupiter         Penumbra    156           4485.0529184
19 Mar 2032 09:47:35.661    19 Mar 2032 11:02:12.776      4477.1148315    Jupiter         Umbra       156           4485.0529184
19 Mar 2032 11:02:12.776    19 Mar 2032 11:02:17.216      4.4404858723    Jupiter         Penumbra    156           4485.0529184
19 Mar 2032 13:22:59.101    19 Mar 2032 14:37:36.388      4477.2870620    Jupiter         Umbra       157           4477.2870620
19 Mar 2032 16:58:22.690    19 Mar 2032 18:13:00.091      4477.4009916    Jupiter         Umbra       158           4477.4009916
19 Mar 2032 20:33:43.312    19 Mar 2032 20:33:46.803      3.4902056213    Jupiter         Penumbra    159           4485.1208036
19 Mar 2032 20:33:46.803    19 Mar 2032 21:48:23.995      4477.1924217    Jupiter         Umbra       159           4485.1208036
19 Mar 2032 21:48:23.995    19 Mar 2032 21:48:28.433      4.4381762389    Jupiter         Penumbra    159           4485.1208036
20 Mar 2032 00:09:11.720    20 Mar 2032 01:23:48.172      4476.4513934    Jupiter         Umbra       160           4476.4513934
20 Mar 2032 03:44:34.062    20 Mar 2032 03:44:37.546      3.4838274121    Jupiter         Penumbra    161           4483.0073218
20 Mar 2032 03:44:37.546    20 Mar 2032 04:59:12.632      4475.0869344    Jupiter         Umbra       161           4483.0073218
20 Mar 2032 04:59:12.632    20 Mar 2032 04:59:17.069      4.4365599984    Jupiter         Penumbra    161           4483.0073218
20 Mar 2032 07:20:04.170    20 Mar 2032 08:34:37.325      4473.1552567    Jupiter         Umbra       162           4473.1552567
20 Mar 2032 10:55:31.305    20 Mar 2032 12:10:02.147      4470.8419753    Jupiter         Umbra       163           4475.2789055
20 Mar 2032 12:10:02.147    20 Mar 2032 12:10:06.584      4.4369302690    Jupiter         Penumbra    163           4475.2789055
20 Mar 2032 14:30:58.564    20 Mar 2032 15:45:26.972      4468.4077983    Jupiter         Umbra       164           4468.4077983
20 Mar 2032 18:06:22.074    20 Mar 2032 18:06:25.562      3.4871749347    Jupiter         Penumbra    165           4474.0461220
20 Mar 2032 18:06:25.562    20 Mar 2032 19:20:51.681      4466.1192709    Jupiter         Umbra       165           4474.0461220
20 Mar 2032 19:20:51.681    20 Mar 2032 19:20:56.121      4.4396761805    Jupiter         Penumbra    165           4474.0461220
20 Mar 2032 21:41:52.003    20 Mar 2032 22:56:16.190      4464.1867345    Jupiter         Umbra       166           4464.1867345
21 Mar 2032 01:17:14.249    21 Mar 2032 01:17:17.745      3.4958275734    Jupiter         Penumbra    167           4466.2185198
21 Mar 2032 01:17:17.745    21 Mar 2032 02:31:40.468      4462.7226922    Jupiter         Umbra       167           4466.2185198
21 Mar 2032 04:52:42.818    21 Mar 2032 06:07:04.542      4461.7238204    Jupiter         Umbra       168           4466.1691877
21 Mar 2032 06:07:04.542    21 Mar 2032 06:07:08.988      4.4453672832    Jupiter         Penumbra    168           4466.1691877
21 Mar 2032 08:28:03.903    21 Mar 2032 08:28:07.407      3.5038377391    Jupiter         Penumbra    169           4464.5839751
21 Mar 2032 08:28:07.407    21 Mar 2032 09:42:28.487      4461.0801374    Jupiter         Umbra       169           4464.5839751
21 Mar 2032 12:03:31.790    21 Mar 2032 13:17:52.400      4460.6097712    Jupiter         Umbra       170           4465.0580239
21 Mar 2032 13:17:52.400    21 Mar 2032 13:17:56.848      4.4482527534    Jupiter         Penumbra    170           4465.0580239
21 Mar 2032 15:38:52.746    21 Mar 2032 15:38:56.256      3.5093861399    Jupiter         Penumbra    171           4463.6241986
21 Mar 2032 15:38:56.256    21 Mar 2032 16:53:16.371      4460.1148125    Jupiter         Umbra       171           4463.6241986
21 Mar 2032 19:14:21.007    21 Mar 2032 20:28:40.451      4459.4440563    Jupiter         Umbra       172           4459.4440563
21 Mar 2032 22:49:42.581    21 Mar 2032 22:49:46.095      3.5145730712    Jupiter         Penumbra    173           4466.5095606
21 Mar 2032 22:49:46.095    22 Mar 2032 00:04:04.638      4458.5428812    Jupiter         Umbra       173           4466.5095606
22 Mar 2032 00:04:04.638    22 Mar 2032 00:04:09.090      4.4521063333    Jupiter         Penumbra    173           4466.5095606
22 Mar 2032 02:25:11.402    22 Mar 2032 03:39:28.874      4457.4717570    Jupiter         Umbra       174           4457.4717570
22 Mar 2032 06:00:33.152    22 Mar 2032 06:00:36.674      3.5226800479    Jupiter         Penumbra    175           4464.3663774
22 Mar 2032 06:00:36.674    22 Mar 2032 07:14:53.062      4456.3875859    Jupiter         Umbra       175           4464.3663774
22 Mar 2032 07:14:53.062    22 Mar 2032 07:14:57.518      4.4561114162    Jupiter         Penumbra    175           4464.3663774
22 Mar 2032 09:36:01.596    22 Mar 2032 10:50:17.092      4455.4969255    Jupiter         Umbra       176           4455.4969255
22 Mar 2032 13:11:22.344    22 Mar 2032 13:11:25.878      3.5341188312    Jupiter         Penumbra    177           4462.9937064
22 Mar 2032 13:11:25.878    22 Mar 2032 14:25:40.876      4454.9983665    Jupiter         Umbra       177           4462.9937064
22 Mar 2032 14:25:40.876    22 Mar 2032 14:25:45.338      4.4612210244    Jupiter         Penumbra    177           4462.9937064
22 Mar 2032 16:46:49.338    22 Mar 2032 18:01:04.368      4455.0303802    Jupiter         Umbra       178           4459.4940850
22 Mar 2032 18:01:04.368    22 Mar 2032 18:01:08.832      4.4637047919    Jupiter         Penumbra    178           4459.4940850
22 Mar 2032 20:22:11.946    22 Mar 2032 21:36:27.581      4455.6346328    Jupiter         Umbra       179           4455.6346328
22 Mar 2032 23:57:33.848    23 Mar 2032 01:11:50.587      4456.7391349    Jupiter         Umbra       180           4461.2065241
23 Mar 2032 01:11:50.587    23 Mar 2032 01:11:55.054      4.4673892669    Jupiter         Penumbra    180           4461.2065241
23 Mar 2032 03:32:51.781    23 Mar 2032 03:32:55.333      3.5529523389    Jupiter         Penumbra    181           4466.1888026
23 Mar 2032 03:32:55.333    23 Mar 2032 04:47:13.501      4458.1675023    Jupiter         Umbra       181           4466.1888026
23 Mar 2032 04:47:13.501    23 Mar 2032 04:47:17.969      4.4683479471    Jupiter         Penumbra    181           4466.1888026
23 Mar 2032 07:08:13.225    23 Mar 2032 07:08:16.780      3.5544365644    Jupiter         Penumbra    182           4463.2289225
23 Mar 2032 07:08:16.780    23 Mar 2032 08:22:36.454      4459.6744859    Jupiter         Umbra       182           4463.2289225
23 Mar 2032 10:43:38.556    23 Mar 2032 11:57:59.561      4461.0050215    Jupiter         Umbra       183           4461.0050215
23 Mar 2032 14:19:00.924    23 Mar 2032 15:33:22.886      4461.9616818    Jupiter         Umbra       184           4466.4304126
23 Mar 2032 15:33:22.886    23 Mar 2032 15:33:27.355      4.4687307905    Jupiter         Penumbra    184           4466.4304126
23 Mar 2032 17:54:23.975    23 Mar 2032 19:08:46.434      4462.4597002    Jupiter         Umbra       185           4462.4597002
23 Mar 2032 21:29:44.048    23 Mar 2032 21:29:47.602      3.5539009608    Jupiter         Penumbra    186           4466.1008027
23 Mar 2032 21:29:47.602    23 Mar 2032 22:44:10.149      4462.5469017    Jupiter         Umbra       186           4466.1008027
24 Mar 2032 01:05:11.547    24 Mar 2032 02:19:33.930      4462.3828172    Jupiter         Umbra       187           4466.8526669
24 Mar 2032 02:19:33.930    24 Mar 2032 02:19:38.400      4.4698497746    Jupiter         Penumbra    187           4466.8526669
24 Mar 2032 04:40:31.923    24 Mar 2032 04:40:35.480      3.5567361396    Jupiter         Penumbra    188           4465.7441485
24 Mar 2032 04:40:35.480    24 Mar 2032 05:54:57.667      4462.1874124    Jupiter         Umbra       188           4465.7441485
24 Mar 2032 08:15:59.087    24 Mar 2032 09:30:21.265      4462.1779991    Jupiter         Umbra       189           4466.6501176
24 Mar 2032 09:30:21.265    24 Mar 2032 09:30:25.737      4.4721185463    Jupiter         Penumbra    189           4466.6501176
24 Mar 2032 11:51:22.160    24 Mar 2032 13:05:44.672      4462.5120372    Jupiter         Umbra       190           4466.9853382
24 Mar 2032 13:05:44.672    24 Mar 2032 13:05:49.145      4.4733010232    Jupiter         Penumbra    190           4466.9853382
24 Mar 2032 15:26:44.643    24 Mar 2032 16:41:07.891      4463.2478893    Jupiter         Umbra       191           4463.2478893
24 Mar 2032 19:02:03.086    24 Mar 2032 19:02:06.652      3.5663135117    Jupiter         Penumbra    192           4472.3708734
24 Mar 2032 19:02:06.652    24 Mar 2032 20:16:30.982      4464.3297847    Jupiter         Umbra       192           4472.3708734
24 Mar 2032 20:16:30.982    24 Mar 2032 20:16:35.457      4.4747751905    Jupiter         Penumbra    192           4472.3708734
24 Mar 2032 22:37:24.876    24 Mar 2032 22:37:28.443      3.5669132369    Jupiter         Penumbra    193           4473.6414811
24 Mar 2032 22:37:28.443    24 Mar 2032 23:51:54.043      4465.5996977    Jupiter         Umbra       193           4473.6414811
24 Mar 2032 23:51:54.043    24 Mar 2032 23:51:58.518      4.4748701155    Jupiter         Penumbra    193           4473.6414811
25 Mar 2032 02:12:50.345    25 Mar 2032 03:27:17.183      4466.8375173    Jupiter         Umbra       194           4466.8375173
25 Mar 2032 05:48:12.668    25 Mar 2032 07:02:40.492      4467.8239891    Jupiter         Umbra       195           4472.2981011
25 Mar 2032 07:02:40.492    25 Mar 2032 07:02:44.966      4.4741119724    Jupiter         Penumbra    195           4472.2981011
25 Mar 2032 09:23:32.042    25 Mar 2032 09:23:35.606      3.5633419175    Jupiter         Penumbra    196           4476.4435976
25 Mar 2032 09:23:35.606    25 Mar 2032 10:38:04.012      4468.4066064    Jupiter         Umbra       196           4476.4435976
25 Mar 2032 10:38:04.012    25 Mar 2032 10:38:08.486      4.4736492913    Jupiter         Penumbra    196           4476.4435976
25 Mar 2032 12:58:59.180    25 Mar 2032 14:13:27.728      4468.5477675    Jupiter         Umbra       197           4468.5477675
25 Mar 2032 16:34:23.235    25 Mar 2032 17:48:51.570      4468.3351982    Jupiter         Umbra       198           4472.8087180
25 Mar 2032 17:48:51.570    25 Mar 2032 17:48:56.044      4.4735197909    Jupiter         Penumbra    198           4472.8087180
25 Mar 2032 20:09:43.924    25 Mar 2032 20:09:47.485      3.5614849068    Jupiter         Penumbra    199           4471.5135587
25 Mar 2032 20:09:47.485    25 Mar 2032 21:24:15.437      4467.9520738    Jupiter         Umbra       199           4471.5135587
25 Mar 2032 23:45:11.603    26 Mar 2032 00:59:39.224      4467.6209325    Jupiter         Umbra       200           4467.6209325
26 Mar 2032 03:20:31.748    26 Mar 2032 03:20:35.312      3.5643948941    Jupiter         Penumbra    201           4475.5806603
26 Mar 2032 03:20:35.312    26 Mar 2032 04:35:02.853      4467.5406240    Jupiter         Umbra       201           4475.5806603
26 Mar 2032 04:35:02.853    26 Mar 2032 04:35:07.329      4.4756414602    Jupiter         Penumbra    201           4475.5806603
26 Mar 2032 06:55:54.895    26 Mar 2032 06:55:58.461      3.5661588656    Jupiter         Penumbra    202           4471.3987007
26 Mar 2032 06:55:58.461    26 Mar 2032 08:10:26.294      4467.8325418    Jupiter         Umbra       202           4471.3987007
26 Mar 2032 10:31:21.068    26 Mar 2032 11:45:49.575      4468.5066015    Jupiter         Umbra       203           4468.5066015
26 Mar 2032 14:06:43.325    26 Mar 2032 15:21:12.778      4469.4529659    Jupiter         Umbra       204           4473.9297873
26 Mar 2032 15:21:12.778    26 Mar 2032 15:21:17.255      4.4768214226    Jupiter         Penumbra    204           4473.9297873
26 Mar 2032 17:42:01.990    26 Mar 2032 17:42:05.557      3.5666492069    Jupiter         Penumbra    205           4474.0296133
26 Mar 2032 17:42:05.557    26 Mar 2032 18:56:36.020      4470.4629641    Jupiter         Umbra       205           4474.0296133
26 Mar 2032 21:17:24.575    26 Mar 2032 21:17:28.140      3.5645734286    Jupiter         Penumbra    206           4474.8436855
26 Mar 2032 21:17:28.140    26 Mar 2032 22:31:59.419      4471.2791121    Jupiter         Umbra       206           4474.8436855
27 Mar 2032 00:52:51.398    27 Mar 2032 02:07:23.064      4471.6658751    Jupiter         Umbra       207           4476.1406610
27 Mar 2032 02:07:23.064    27 Mar 2032 02:07:27.539      4.4747858774    Jupiter         Penumbra    207           4476.1406610
27 Mar 2032 04:28:11.952    27 Mar 2032 04:28:15.511      3.5591004649    Jupiter         Penumbra    208           4475.0388068
27 Mar 2032 04:28:15.511    27 Mar 2032 05:42:46.991      4471.4797063    Jupiter         Umbra       208           4475.0388068
27 Mar 2032 08:03:40.456    27 Mar 2032 09:18:11.169      4470.7132079    Jupiter         Umbra       209           4475.1870489
27 Mar 2032 09:18:11.169    27 Mar 2032 09:18:15.643      4.4738410274    Jupiter         Penumbra    209           4475.1870489
27 Mar 2032 11:39:02.458    27 Mar 2032 11:39:06.015      3.5563042620    Jupiter         Penumbra    210           4473.0524566
27 Mar 2032 11:39:06.015    27 Mar 2032 12:53:35.511      4469.4961524    Jupiter         Umbra       210           4473.0524566
27 Mar 2032 15:14:31.840    27 Mar 2032 16:28:59.897      4468.0563971    Jupiter         Umbra       211           4468.0563971
27 Mar 2032 18:49:53.988    27 Mar 2032 18:49:57.548      3.5592507105    Jupiter         Penumbra    212           4474.6916112
27 Mar 2032 18:49:57.548    27 Mar 2032 20:04:24.204      4466.6560004    Jupiter         Umbra       212           4474.6916112
27 Mar 2032 20:04:24.204    27 Mar 2032 20:04:28.680      4.4763599988    Jupiter         Penumbra    212           4474.6916112
27 Mar 2032 22:25:22.808    27 Mar 2032 23:39:48.335      4465.5264960    Jupiter         Umbra       213           4465.5264960
28 Mar 2032 02:00:43.857    28 Mar 2032 02:00:47.424      3.5663399147    Jupiter         Penumbra    214           4472.8642215
28 Mar 2032 02:00:47.424    28 Mar 2032 03:15:12.242      4464.8181119    Jupiter         Umbra       214           4472.8642215
28 Mar 2032 03:15:12.242    28 Mar 2032 03:15:16.721      4.4797697570    Jupiter         Penumbra    214           4472.8642215
28 Mar 2032 05:36:11.364    28 Mar 2032 06:50:35.934      4464.5707126    Jupiter         Umbra       215           4464.5707126
28 Mar 2032 09:11:34.765    28 Mar 2032 10:25:59.475      4464.7106756    Jupiter         Umbra       216           4464.7106756
28 Mar 2032 12:46:54.308    28 Mar 2032 12:46:57.884      3.5759707214    Jupiter         Penumbra    217           4473.1350578
28 Mar 2032 12:46:57.884    28 Mar 2032 14:01:22.959      4465.0753613    Jupiter         Umbra       217           4473.1350578
28 Mar 2032 14:01:22.959    28 Mar 2032 14:01:27.443      4.4837258058    Jupiter         Penumbra    217           4473.1350578
28 Mar 2032 16:22:21.019    28 Mar 2032 17:36:46.482      4465.4624927    Jupiter         Umbra       218           4465.4624927
28 Mar 2032 19:57:44.417    28 Mar 2032 21:12:10.111      4465.6939111    Jupiter         Umbra       219           4465.6939111
28 Mar 2032 23:33:04.608    28 Mar 2032 23:33:08.189      3.5808169283    Jupiter         Penumbra    220           4473.7414051
28 Mar 2032 23:33:08.189    29 Mar 2032 00:47:33.863      4465.6744553    Jupiter         Umbra       220           4473.7414051
29 Mar 2032 00:47:33.863    29 Mar 2032 00:47:38.349      4.4861328788    Jupiter         Penumbra    220           4473.7414051
29 Mar 2032 03:08:32.273    29 Mar 2032 04:22:57.698      4465.4248986    Jupiter         Umbra       221           4465.4248986
29 Mar 2032 06:43:52.865    29 Mar 2032 06:43:56.451      3.5858762451    Jupiter         Penumbra    222           4473.1516439
29 Mar 2032 06:43:56.451    29 Mar 2032 07:58:21.528      4465.0769505    Jupiter         Umbra       222           4473.1516439
29 Mar 2032 07:58:21.528    29 Mar 2032 07:58:26.017      4.4888171833    Jupiter         Penumbra    222           4473.1516439
29 Mar 2032 10:19:20.412    29 Mar 2032 11:33:45.246      4464.8341221    Jupiter         Umbra       223           4464.8341221
29 Mar 2032 13:54:43.838    29 Mar 2032 15:09:08.753      4464.9145626    Jupiter         Umbra       224           4464.9145626
29 Mar 2032 17:30:02.894    29 Mar 2032 17:30:06.493      3.5993518308    Jupiter         Penumbra    225           4473.5870909
29 Mar 2032 17:30:06.493    29 Mar 2032 18:44:31.986      4465.4932207    Jupiter         Umbra       225           4473.5870909
29 Mar 2032 18:44:31.986    29 Mar 2032 18:44:36.481      4.4945183443    Jupiter         Penumbra    225           4473.5870909
29 Mar 2032 21:05:24.681    29 Mar 2032 21:05:28.285      3.6039440660    Jupiter         Penumbra    226           4474.7555517
29 Mar 2032 21:05:28.285    29 Mar 2032 22:19:54.940      4466.6555227    Jupiter         Umbra       226           4474.7555517
29 Mar 2032 22:19:54.940    29 Mar 2032 22:19:59.436      4.4960849220    Jupiter         Penumbra    226           4474.7555517
30 Mar 2032 00:40:49.299    30 Mar 2032 01:55:17.669      4468.3703526    Jupiter         Umbra       227           4468.3703526
30 Mar 2032 04:16:09.789    30 Mar 2032 05:30:40.277      4470.4879840    Jupiter         Umbra       228           4470.4879840
30 Mar 2032 07:51:30.127    30 Mar 2032 09:06:02.894      4472.7667511    Jupiter         Umbra       229           4477.2640656
30 Mar 2032 09:06:02.894    30 Mar 2032 09:06:07.391      4.4973145472    Jupiter         Penumbra    229           4477.2640656
30 Mar 2032 11:26:50.717    30 Mar 2032 12:41:25.644      4474.9275785    Jupiter         Umbra       230           4474.9275785
30 Mar 2032 15:02:11.887    30 Mar 2032 16:16:48.614      4476.7260770    Jupiter         Umbra       231           4476.7260770
30 Mar 2032 18:37:33.807    30 Mar 2032 19:52:11.827      4478.0206070    Jupiter         Umbra       232           4482.5154698
30 Mar 2032 19:52:11.827    30 Mar 2032 19:52:16.322      4.4948628405    Jupiter         Penumbra    232           4482.5154698
30 Mar 2032 22:12:52.836    30 Mar 2032 22:12:56.439      3.6028866889    Jupiter         Penumbra    233           4482.4125767
30 Mar 2032 22:12:56.439    30 Mar 2032 23:27:35.249      4478.8096901    Jupiter         Umbra       233           4482.4125767
31 Mar 2032 01:48:19.567    31 Mar 2032 03:02:58.792      4479.2246986    Jupiter         Umbra       234           4479.2246986
31 Mar 2032 05:23:42.861    31 Mar 2032 06:38:22.346      4479.4857438    Jupiter         Umbra       235           4483.9796769
31 Mar 2032 06:38:22.346    31 Mar 2032 06:38:26.840      4.4939330779    Jupiter         Penumbra    235           4483.9796769
31 Mar 2032 08:59:02.375    31 Mar 2032 08:59:05.976      3.6007706774    Jupiter         Penumbra    236           4483.4353741
31 Mar 2032 08:59:05.976    31 Mar 2032 10:13:45.811      4479.8346034    Jupiter         Umbra       236           4483.4353741
31 Mar 2032 12:34:28.649    31 Mar 2032 13:49:09.118      4480.4683143    Jupiter         Umbra       237           4480.4683143
31 Mar 2032 16:09:50.765    31 Mar 2032 17:24:32.253      4481.4884210    Jupiter         Umbra       238           4485.9829186
31 Mar 2032 17:24:32.253    31 Mar 2032 17:24:36.747      4.4944975991    Jupiter         Penumbra    238           4485.9829186
31 Mar 2032 19:45:12.385    31 Mar 2032 20:59:55.259      4482.8738327    Jupiter         Umbra       239           4482.8738327
31 Mar 2032 23:20:33.741    01 Apr 2032 00:35:18.223      4484.4824226    Jupiter         Umbra       240           4484.4824226
01 Apr 2032 02:55:51.574    01 Apr 2032 02:55:55.171      3.5972936545    Jupiter         Penumbra    241           4494.1750073
01 Apr 2032 02:55:55.171    01 Apr 2032 04:10:41.257      4486.0854043    Jupiter         Umbra       241           4494.1750073
01 Apr 2032 04:10:41.257    01 Apr 2032 04:10:45.749      4.4923092937    Jupiter         Penumbra    241           4494.1750073
01 Apr 2032 06:31:13.434    01 Apr 2032 06:31:17.028      3.5934784217    Jupiter         Penumbra    242           4495.5145658
01 Apr 2032 06:31:17.028    01 Apr 2032 07:46:04.458      4487.4301875    Jupiter         Umbra       242           4495.5145658
01 Apr 2032 07:46:04.458    01 Apr 2032 07:46:08.949      4.4908998767    Jupiter         Penumbra    242           4495.5145658
01 Apr 2032 10:06:39.571    01 Apr 2032 11:21:27.887      4488.3157603    Jupiter         Umbra       243           4488.3157603
01 Apr 2032 13:42:02.892    01 Apr 2032 14:56:51.547      4488.6556548    Jupiter         Umbra       244           4493.1438081
01 Apr 2032 14:56:51.547    01 Apr 2032 14:56:56.035      4.4881533366    Jupiter         Penumbra    244           4493.1438081
01 Apr 2032 17:17:23.301    01 Apr 2032 17:17:26.881      3.5807993263    Jupiter         Penumbra    245           4492.0852888
01 Apr 2032 17:17:26.881    01 Apr 2032 18:32:15.386      4488.5044895    Jupiter         Umbra       245           4492.0852888
01 Apr 2032 20:52:51.271    01 Apr 2032 22:07:39.309      4488.0379014    Jupiter         Umbra       246           4488.0379014
02 Apr 2032 00:28:12.137    02 Apr 2032 00:28:15.713      3.5762485815    Jupiter         Penumbra    247           4495.5587537
02 Apr 2032 00:28:15.713    02 Apr 2032 01:43:03.209      4487.4960962    Jupiter         Umbra       247           4495.5587537
02 Apr 2032 01:43:03.209    02 Apr 2032 01:43:07.696      4.4864088530    Jupiter         Penumbra    247           4495.5587537
02 Apr 2032 04:03:39.883    02 Apr 2032 05:18:26.997      4487.1142580    Jupiter         Umbra       248           4487.1142580
02 Apr 2032 07:39:03.567    02 Apr 2032 08:53:50.625      4487.0581649    Jupiter         Umbra       249           4491.5444725
02 Apr 2032 08:53:50.625    02 Apr 2032 08:53:55.111      4.4863076415    Jupiter         Penumbra    249           4491.5444725
02 Apr 2032 11:14:23.149    02 Apr 2032 11:14:26.723      3.5736365709    Jupiter         Penumbra    250           4495.4383309
02 Apr 2032 11:14:26.723    02 Apr 2032 12:29:14.101      4487.3786853    Jupiter         Umbra       250           4495.4383309
02 Apr 2032 12:29:14.101    02 Apr 2032 12:29:18.587      4.4860090362    Jupiter         Penumbra    250           4495.4383309
02 Apr 2032 14:49:49.497    02 Apr 2032 16:04:37.491      4487.9945194    Jupiter         Umbra       251           4487.9945194
02 Apr 2032 18:25:12.198    02 Apr 2032 19:40:00.903      4488.7046028    Jupiter         Umbra       252           4493.1888334
02 Apr 2032 19:40:00.903    02 Apr 2032 19:40:05.387      4.4842306059    Jupiter         Penumbra    252           4493.1888334
02 Apr 2032 22:00:31.658    02 Apr 2032 22:00:35.222      3.5644049523    Jupiter         Penumbra    253           4497.2823091
