Results/Reports/Contactos/Contactos_h-600_e06.csv

Target: JupiterExpress_Finite

Observer: Montegancedo
Start Time (UTC)            Stop Time (UTC)               Duration (s)         
27 Mar 2032 05:34:04.943    27 Mar 2032 11:55:12.403      22867.460409    
28 Mar 2032 03:50:26.712    28 Mar 2032 11:52:00.473      28893.761276    
29 Mar 2032 03:46:59.097    29 Mar 2032 11:48:47.912      28908.814421    
30 Mar 2032 03:43:31.034    30 Mar 2032 11:45:34.709      28923.674421    
31 Mar 2032 03:40:02.520    31 Mar 2032 11:42:20.854      28938.333791    
01 Apr 2032 03:36:33.553    01 Apr 2032 11:39:06.337      28952.784701    
02 Apr 2032 03:33:04.129    02 Apr 2032 11:35:51.148      28967.019221    
03 Apr 2032 03:29:34.246    03 Apr 2032 11:32:35.275      28981.029630    
04 Apr 2032 03:26:03.899    04 Apr 2032 11:29:18.708      28994.808752    
05 Apr 2032 03:22:33.085    05 Apr 2032 11:26:01.435      29008.350208    
06 Apr 2032 03:19:01.798    06 Apr 2032 11:22:43.447      29021.648486    
07 Apr 2032 03:15:30.034    07 Apr 2032 11:19:24.733      29034.698754    
08 Apr 2032 03:11:57.788    08 Apr 2032 11:16:05.285      29047.496449    
09 Apr 2032 03:08:25.056    09 Apr 2032 11:12:45.093      29060.036769    
10 Apr 2032 03:04:51.834    10 Apr 2032 11:09:24.148      29072.314311    
11 Apr 2032 03:01:18.118    11 Apr 2032 11:06:02.441      29084.322966    
12 Apr 2032 02:57:43.906    12 Apr 2032 11:02:39.962      29096.056172    
13 Apr 2032 02:54:09.196    13 Apr 2032 10:59:16.703      29107.507296    
14 Apr 2032 02:50:33.986    14 Apr 2032 10:55:52.656      29118.670006    
15 Apr 2032 02:46:58.273    15 Apr 2032 10:52:27.812      29129.538482    
16 Apr 2032 02:43:22.055    16 Apr 2032 10:49:02.163      29140.107435    
17 Apr 2032 02:39:45.329    17 Apr 2032 10:45:35.701      29150.372041    
18 Apr 2032 02:36:08.092    18 Apr 2032 10:42:08.420      29160.327841    
19 Apr 2032 02:32:30.342    19 Apr 2032 10:38:40.313      29169.970656    
20 Apr 2032 02:28:52.076    20 Apr 2032 10:35:11.372      29179.296499    
21 Apr 2032 02:25:13.290    21 Apr 2032 10:31:41.592      29188.301503    
22 Apr 2032 02:21:33.983    22 Apr 2032 10:28:10.965      29196.981857    
23 Apr 2032 02:17:54.151    23 Apr 2032 10:24:39.485      29205.333693    
24 Apr 2032 02:14:13.792    24 Apr 2032 10:21:07.145      29213.352946    
25 Apr 2032 02:10:32.903    25 Apr 2032 10:17:33.939      29221.035179    
26 Apr 2032 02:06:51.483    26 Apr 2032 10:13:59.858      29228.375438    
27 Apr 2032 02:03:09.529    27 Apr 2032 10:10:24.897      29235.368222    
28 Apr 2032 01:59:27.038    28 Apr 2032 10:06:49.046      29242.007605    
29 Apr 2032 01:55:44.010    29 Apr 2032 10:03:12.298      29248.287513    
30 Apr 2032 01:52:00.441    30 Apr 2032 09:59:34.643      29254.202089    
01 May 2032 01:48:16.328    01 May 2032 09:55:56.074      29259.746069    
02 May 2032 01:44:31.668    02 May 2032 09:52:16.583      29264.915078    
03 May 2032 01:40:46.457    03 May 2032 09:48:36.163      29269.705697    
04 May 2032 01:37:00.691    04 May 2032 09:44:54.806      29274.115337    
05 May 2032 01:33:14.365    05 May 2032 09:41:12.507      29278.141909    
06 May 2032 01:29:27.477    06 May 2032 09:37:29.261      29281.783405    
07 May 2032 01:25:40.023    07 May 2032 09:33:45.061      29285.037561    
08 May 2032 01:21:52.001    08 May 2032 09:29:59.903      29287.901680    
09 May 2032 01:18:03.409    09 May 2032 09:26:13.782      29290.372713    
10 May 2032 01:14:14.246    10 May 2032 09:22:26.694      29292.447491    
11 May 2032 01:10:24.512    11 May 2032 09:18:38.635      29294.123064    
12 May 2032 01:06:34.204    12 May 2032 09:14:49.601      29295.396972    
13 May 2032 01:02:43.323    13 May 2032 09:10:59.591      29296.267399    
14 May 2032 00:58:51.868    14 May 2032 09:07:08.602      29296.733203    
15 May 2032 00:54:59.839    15 May 2032 09:03:16.632      29296.793849    
16 May 2032 00:51:07.233    16 May 2032 08:59:23.682      29296.449290    
17 May 2032 00:47:14.051    17 May 2032 08:55:29.751      29295.699852    
18 May 2032 00:43:20.292    18 May 2032 08:51:34.838      29294.546130    
19 May 2032 00:39:25.956    19 May 2032 08:47:38.945      29292.988929    
20 May 2032 00:35:31.042    20 May 2032 08:43:42.071      29291.029182    
21 May 2032 00:31:35.551    21 May 2032 08:39:44.219      29288.667864    
22 May 2032 00:27:39.483    22 May 2032 08:35:45.389      29285.905827    
23 May 2032 00:23:42.839    23 May 2032 08:31:45.582      29282.743625    
24 May 2032 00:19:45.619    24 May 2032 08:27:44.800      29279.181376    
25 May 2032 00:15:47.825    25 May 2032 08:23:43.044      29275.218743    
26 May 2032 00:11:49.458    26 May 2032 08:19:40.313      29270.855131    
27 May 2032 00:07:50.519    27 May 2032 08:15:36.609      29266.090078    
28 May 2032 00:03:51.010    28 May 2032 08:11:31.934      29260.923750    
28 May 2032 23:59:50.931    29 May 2032 08:07:26.288      29255.357365    
29 May 2032 23:55:50.281    30 May 2032 08:03:19.674      29249.393373    
30 May 2032 23:51:49.061    31 May 2032 07:59:12.096      29243.035345    
31 May 2032 23:47:47.271    01 Jun 2032 07:55:03.559      29236.287609    
01 Jun 2032 23:43:44.913    02 Jun 2032 07:50:54.068      29229.154816    
02 Jun 2032 23:39:41.987    03 Jun 2032 07:46:43.628      29221.641571    
03 Jun 2032 23:35:38.495    04 Jun 2032 07:42:32.247      29213.752249    
04 Jun 2032 23:31:34.442    05 Jun 2032 07:38:19.933      29205.491007    
05 Jun 2032 23:27:29.831    06 Jun 2032 07:34:06.693      29196.861975    
06 Jun 2032 23:23:24.667    07 Jun 2032 07:29:52.536      29187.869509    
07 Jun 2032 23:19:18.954    08 Jun 2032 07:25:37.472      29178.518452    
08 Jun 2032 23:15:12.698    09 Jun 2032 07:21:21.513      29168.814319    
09 Jun 2032 23:11:05.905    10 Jun 2032 07:17:04.669      29158.763362    
10 Jun 2032 23:06:58.580    11 Jun 2032 07:12:46.953      29148.372557    
11 Jun 2032 23:02:50.729    12 Jun 2032 07:08:28.379      29137.649520    
12 Jun 2032 22:58:42.359    13 Jun 2032 07:04:08.961      29126.602380    
13 Jun 2032 22:54:33.474    14 Jun 2032 06:59:48.714      29115.239643    
14 Jun 2032 22:50:24.084    15 Jun 2032 06:55:27.654      29103.570073    
15 Jun 2032 22:46:14.193    16 Jun 2032 06:51:05.796      29091.602600    
16 Jun 2032 22:42:03.811    17 Jun 2032 06:46:43.158      29079.346243    
17 Jun 2032 22:37:52.945    18 Jun 2032 06:42:19.755      29066.809997    
18 Jun 2032 22:33:41.604    19 Jun 2032 06:37:55.607      29054.002692    
19 Jun 2032 22:29:29.796    20 Jun 2032 06:33:30.729      29040.932814    
20 Jun 2032 22:25:17.531    21 Jun 2032 06:29:05.140      29027.608379    
21 Jun 2032 22:21:04.819    22 Jun 2032 06:24:38.856      29014.036945    
22 Jun 2032 22:16:51.669    23 Jun 2032 06:20:11.895      29000.225860    
23 Jun 2032 22:12:38.092    24 Jun 2032 06:15:44.275      28986.182753    
24 Jun 2032 22:08:24.096    25 Jun 2032 06:11:16.012      28971.916114    
25 Jun 2032 22:04:09.692    26 Jun 2032 06:06:47.127      28957.435712    
26 Jun 2032 21:59:54.887    27 Jun 2032 06:02:17.639      28942.752628    
27 Jun 2032 21:55:39.690    28 Jun 2032 05:57:47.569      28927.878867    
28 Jun 2032 21:51:24.113    29 Jun 2032 05:53:16.940      28912.826777    
29 Jun 2032 21:47:08.165    30 Jun 2032 05:48:45.773      28897.608528    
30 Jun 2032 21:42:51.857    01 Jul 2032 05:44:14.093      28882.235872    
01 Jul 2032 21:38:35.204    02 Jul 2032 05:39:41.924      28866.720135    
02 Jul 2032 21:34:18.218    03 Jul 2032 05:35:09.290      28851.072419    
03 Jul 2032 21:30:00.913    04 Jul 2032 05:30:36.217      28835.303811    
04 Jul 2032 21:25:43.305    05 Jul 2032 05:26:02.730      28819.425614    
05 Jul 2032 21:21:25.407    06 Jul 2032 05:21:28.857      28803.449519    
06 Jul 2032 21:17:07.237    07 Jul 2032 05:16:54.624      28787.387687    
07 Jul 2032 21:12:48.808    08 Jul 2032 05:12:20.061      28771.252751    
08 Jul 2032 21:08:30.137    09 Jul 2032 05:07:45.195      28755.057724    
09 Jul 2032 21:04:11.239    10 Jul 2032 05:03:10.055      28738.815883    
10 Jul 2032 20:59:52.131    11 Jul 2032 04:58:34.672      28722.540630    
11 Jul 2032 20:55:32.829    12 Jul 2032 04:53:59.074      28706.245349    
12 Jul 2032 20:51:13.349    13 Jul 2032 04:49:23.293      28689.943282    
13 Jul 2032 20:46:53.709    14 Jul 2032 04:44:47.356      28673.647408    
14 Jul 2032 20:42:33.925    15 Jul 2032 04:40:11.295      28657.370342    
15 Jul 2032 20:38:14.015    16 Jul 2032 04:35:35.139      28641.124233    
16 Jul 2032 20:33:53.996    17 Jul 2032 04:30:58.917      28624.920652    
17 Jul 2032 20:29:33.887    18 Jul 2032 04:26:22.657      28608.770459    
18 Jul 2032 20:25:13.705    19 Jul 2032 04:21:46.388      28592.683729    
19 Jul 2032 20:20:53.468    20 Jul 2032 04:17:10.138      28576.669813    
20 Jul 2032 20:16:33.196    21 Jul 2032 04:12:33.933      28560.737643    
21 Jul 2032 20:12:12.904    22 Jul 2032 04:07:57.800      28544.896260    
22 Jul 2032 20:07:52.610    23 Jul 2032 04:03:21.765      28529.155411    
23 Jul 2032 20:03:32.330    24 Jul 2032 03:58:45.855      28513.525886    
24 Jul 2032 19:59:12.079    25 Jul 2032 03:54:10.098      28498.019385    
25 Jul 2032 19:54:51.873    26 Jul 2032 03:49:34.521      28482.647896    
26 Jul 2032 19:50:31.729    27 Jul 2032 03:44:59.152      28467.422932    
27 Jul 2032 19:46:11.664    28 Jul 2032 03:40:24.019      28452.355013    
28 Jul 2032 19:41:51.696    29 Jul 2032 03:35:49.150      28437.453604    
29 Jul 2032 19:37:31.844    30 Jul 2032 03:31:14.571      28422.727387    
30 Jul 2032 19:33:12.126    31 Jul 2032 03:26:40.310      28408.184608    
31 Jul 2032 19:28:52.561    01 Aug 2032 03:22:06.395      28393.833340    
01 Aug 2032 19:24:33.169    02 Aug 2032 03:17:32.851      28379.681625    
02 Aug 2032 19:20:13.968    03 Aug 2032 03:12:59.706      28365.737545    
03 Aug 2032 19:15:54.977    04 Aug 2032 03:08:26.986      28352.009264    
04 Aug 2032 19:11:36.213    05 Aug 2032 03:03:54.718      28338.504980    
05 Aug 2032 19:07:17.694    06 Aug 2032 02:59:22.927      28325.232848    
06 Aug 2032 19:02:59.439    07 Aug 2032 02:54:51.639      28312.200837    
07 Aug 2032 18:58:41.463    08 Aug 2032 02:50:20.880      28299.416615    
08 Aug 2032 18:54:23.785    09 Aug 2032 02:45:50.672      28286.887449    
09 Aug 2032 18:50:06.421    10 Aug 2032 02:41:21.041      28274.620104    
10 Aug 2032 18:45:49.387    11 Aug 2032 02:36:52.008      28262.620755    
11 Aug 2032 18:41:32.701    12 Aug 2032 02:32:23.596      28250.894894    
12 Aug 2032 18:37:16.378    13 Aug 2032 02:27:55.825      28239.447279    
13 Aug 2032 18:33:00.434    14 Aug 2032 02:23:28.716      28228.281898    
14 Aug 2032 18:28:44.884    15 Aug 2032 02:19:02.286      28217.401963    
15 Aug 2032 18:24:29.744    16 Aug 2032 02:14:36.554      28206.809949    
16 Aug 2032 18:20:15.028    17 Aug 2032 02:10:11.536      28196.507743    
17 Aug 2032 18:16:00.750    18 Aug 2032 02:05:47.247      28186.496991    
18 Aug 2032 18:11:46.923    19 Aug 2032 02:01:23.703      28176.779613    
19 Aug 2032 18:07:33.558    20 Aug 2032 01:57:00.916      28167.358326    
20 Aug 2032 18:03:20.666    21 Aug 2032 01:52:38.903      28158.236856    
21 Aug 2032 17:59:08.257    22 Aug 2032 01:48:17.677      28149.419666    
22 Aug 2032 17:54:56.341    23 Aug 2032 01:43:57.252      28140.911234    
23 Aug 2032 17:50:44.928    24 Aug 2032 01:39:37.643      28132.715266    
24 Aug 2032 17:46:34.028    25 Aug 2032 01:35:18.863      28124.834270    
25 Aug 2032 17:42:23.654    26 Aug 2032 01:31:00.924      28117.269679    
26 Aug 2032 17:38:13.816    27 Aug 2032 01:26:43.838      28110.022341    
27 Aug 2032 17:34:04.525    28 Aug 2032 01:22:27.618      28103.093035    
28 Aug 2032 17:29:55.793    29 Aug 2032 01:18:12.276      28096.482733    
29 Aug 2032 17:25:47.628    30 Aug 2032 01:13:57.821      28090.192669    
30 Aug 2032 17:21:40.041    31 Aug 2032 01:09:44.265      28084.224270    
31 Aug 2032 17:17:33.040    01 Sep 2032 01:05:31.619      28078.579140    
01 Sep 2032 17:13:26.633    02 Sep 2032 01:01:19.892      28073.259003    
02 Sep 2032 17:09:20.829    03 Sep 2032 00:57:09.094      28068.265619    
03 Sep 2032 17:05:15.633    04 Sep 2032 00:52:59.234      28063.600656    
04 Sep 2032 17:01:11.053    05 Sep 2032 00:48:50.319      28059.265586    
05 Sep 2032 16:57:07.095    06 Sep 2032 00:44:42.357      28055.261597    
06 Sep 2032 16:53:03.765    07 Sep 2032 00:40:35.354      28051.589511    
07 Sep 2032 16:49:01.068    08 Sep 2032 00:36:29.318      28048.249699    
08 Sep 2032 16:44:59.009    09 Sep 2032 00:32:24.251      28045.242005    
09 Sep 2032 16:40:57.594    10 Sep 2032 00:28:20.160      28042.565728    
10 Sep 2032 16:36:56.825    11 Sep 2032 00:24:17.045      28040.219649    
11 Sep 2032 16:32:56.708    12 Sep 2032 00:20:14.910      28038.202119    
12 Sep 2032 16:28:57.244    13 Sep 2032 00:16:13.755      28036.511197    
13 Sep 2032 16:24:58.437    14 Sep 2032 00:12:13.582      28035.144852    
14 Sep 2032 16:21:00.288    15 Sep 2032 00:08:14.389      28034.101301    
15 Sep 2032 16:17:02.797    16 Sep 2032 00:04:16.177      28033.379392    
16 Sep 2032 16:13:05.965    17 Sep 2032 00:00:18.944      28032.978936    
17 Sep 2032 16:09:09.790    17 Sep 2032 23:56:22.690      28032.900725    
18 Sep 2032 16:05:14.270    18 Sep 2032 23:52:27.416      28033.146175    
19 Sep 2032 16:01:19.404    19 Sep 2032 23:48:33.120      28033.716614    
20 Sep 2032 15:57:25.191    20 Sep 2032 23:44:39.803      28034.612609    
21 Sep 2032 15:53:31.630    21 Sep 2032 23:40:47.464      28035.833661    
22 Sep 2032 15:49:38.722    22 Sep 2032 23:36:56.100      28037.378424    
23 Sep 2032 15:45:46.466    23 Sep 2032 23:33:05.711      28039.245282    
24 Sep 2032 15:41:54.863    24 Sep 2032 23:29:16.295      28041.432892    
25 Sep 2032 15:38:03.911    25 Sep 2032 23:25:27.851      28043.940467    
26 Sep 2032 15:34:13.609    26 Sep 2032 23:21:40.377      28046.767752    
27 Sep 2032 15:30:23.956    27 Sep 2032 23:17:53.871      28049.914872    
28 Sep 2032 15:26:34.949    28 Sep 2032 23:14:08.332      28053.382206    
29 Sep 2032 15:22:46.586    29 Sep 2032 23:10:23.757      28057.170297    
30 Sep 2032 15:18:58.864    30 Sep 2032 23:06:40.144      28061.279773    
01 Oct 2032 15:15:11.779    01 Oct 2032 23:02:57.491      28065.711234    
02 Oct 2032 15:11:25.329    02 Oct 2032 22:59:15.794      28070.465161    
03 Oct 2032 15:07:39.509    03 Oct 2032 22:55:35.050      28075.541815    
04 Oct 2032 15:03:54.315    04 Oct 2032 22:51:55.256      28080.941153    
05 Oct 2032 15:00:09.744    05 Oct 2032 22:48:16.406      28086.662741    
06 Oct 2032 14:56:25.791    06 Oct 2032 22:44:38.496      28092.705680    
07 Oct 2032 14:52:42.452    07 Oct 2032 22:41:01.520      28099.068617    
08 Oct 2032 14:48:59.722    08 Oct 2032 22:37:25.472      28105.749826    
09 Oct 2032 14:45:17.597    09 Oct 2032 22:33:50.344      28112.747368    
10 Oct 2032 14:41:36.070    10 Oct 2032 22:30:16.130      28120.059306    
11 Oct 2032 14:37:55.137    11 Oct 2032 22:26:42.821      28127.683946    
12 Oct 2032 14:34:14.790    12 Oct 2032 22:23:10.410      28135.620111    
13 Oct 2032 14:30:35.023    13 Oct 2032 22:19:38.890      28143.867376    
14 Oct 2032 14:26:55.827    14 Oct 2032 22:16:08.253      28152.426164    
15 Oct 2032 14:23:17.194    15 Oct 2032 22:12:38.492      28161.297589    
16 Oct 2032 14:19:39.118    16 Oct 2032 22:09:09.601      28170.483038    
17 Oct 2032 14:16:01.588    17 Oct 2032 22:05:41.572      28179.983599    
18 Oct 2032 14:12:24.600    18 Oct 2032 22:02:14.400      28189.799586    
19 Oct 2032 14:08:48.146    19 Oct 2032 21:58:48.077      28199.930392    
20 Oct 2032 14:05:12.221    20 Oct 2032 21:55:22.596      28210.374756    
21 Oct 2032 14:01:36.819    21 Oct 2032 21:51:57.950      28221.131273    
22 Oct 2032 13:58:01.934    22 Oct 2032 21:48:34.133      28232.198902    
23 Oct 2032 13:54:27.561    23 Oct 2032 21:45:11.138      28243.577204    
24 Oct 2032 13:50:53.692    24 Oct 2032 21:41:48.959      28255.266331    
25 Oct 2032 13:47:20.322    25 Oct 2032 21:38:27.589      28267.266822    
26 Oct 2032 13:43:47.442    26 Oct 2032 21:35:07.022      28279.579423    
27 Oct 2032 13:40:15.047    27 Oct 2032 21:31:47.252      28292.204939    
28 Oct 2032 13:36:43.129    28 Oct 2032 21:28:28.273      28305.144147    
29 Oct 2032 13:33:11.680    29 Oct 2032 21:25:10.078      28318.397719    
30 Oct 2032 13:29:40.695    30 Oct 2032 21:21:52.661      28331.966144    
31 Oct 2032 13:26:10.164    31 Oct 2032 21:18:36.014      28345.849643    
01 Nov 2032 13:22:40.082    01 Nov 2032 21:15:20.130      28360.048075    
02 Nov 2032 13:19:10.441    02 Nov 2032 21:12:05.002      28374.560830    
03 Nov 2032 13:15:41.234    03 Nov 2032 21:08:50.621      28389.386774    
04 Nov 2032 13:12:12.454    04 Nov 2032 21:05:36.979      28404.524269    
05 Nov 2032 13:08:44.094    05 Nov 2032 21:02:24.066      28419.971322    
06 Nov 2032 13:05:16.147    06 Nov 2032 20:59:11.873      28435.725809    
07 Nov 2032 13:01:48.605    07 Nov 2032 20:56:00.390      28451.785760    
08 Nov 2032 12:58:21.459    08 Nov 2032 20:52:49.609      28468.149628    
09 Nov 2032 12:54:54.702    09 Nov 2032 20:49:39.518      28484.816501    
10 Nov 2032 12:51:28.323    10 Nov 2032 20:46:30.110      28501.786171    
11 Nov 2032 12:48:02.315    11 Nov 2032 20:43:21.374      28519.059040    
12 Nov 2032 12:44:36.668    12 Nov 2032 20:40:13.304      28536.635817    
13 Nov 2032 12:41:11.373    13 Nov 2032 20:37:05.890      28554.517099    
14 Nov 2032 12:37:46.422    14 Nov 2032 20:33:59.125      28572.702961    
15 Nov 2032 12:34:21.808    15 Nov 2032 20:30:53.000      28591.192720    
16 Nov 2032 12:30:57.522    16 Nov 2032 20:27:47.507      28609.984951    
17 Nov 2032 12:27:33.560    17 Nov 2032 20:24:42.638      28629.077768    
18 Nov 2032 12:24:09.915    18 Nov 2032 20:21:38.384      28648.469243    
19 Nov 2032 12:20:46.580    19 Nov 2032 20:18:34.738      28668.157780    
20 Nov 2032 12:17:23.549    20 Nov 2032 20:15:31.691      28688.142310    
21 Nov 2032 12:14:00.815    21 Nov 2032 20:12:29.238      28708.422280    
22 Nov 2032 12:10:38.372    22 Nov 2032 20:09:27.370      28728.997492    
23 Nov 2032 12:07:16.212    23 Nov 2032 20:06:26.080      28749.867899    
24 Nov 2032 12:03:54.328    24 Nov 2032 20:03:25.362      28771.033432    
25 Nov 2032 12:00:32.714    25 Nov 2032 20:00:25.208      28792.493887    
26 Nov 2032 11:57:11.363    26 Nov 2032 19:57:25.612      28814.248862    
27 Nov 2032 11:53:50.267    27 Nov 2032 19:54:26.565      28836.297708    
28 Nov 2032 11:50:29.420    28 Nov 2032 19:51:28.060      28858.639475    
29 Nov 2032 11:47:08.817    29 Nov 2032 19:48:30.090      28881.272808    
30 Nov 2032 11:43:48.449    30 Nov 2032 19:45:32.645      28904.195847    
01 Dec 2032 11:40:28.312    01 Dec 2032 19:42:35.718      28927.406160    
02 Dec 2032 11:37:08.398    02 Dec 2032 19:39:39.299      28950.900760    
03 Dec 2032 11:33:48.703    03 Dec 2032 19:36:43.379      28974.676293    
04 Dec 2032 11:30:29.218    04 Dec 2032 19:33:47.947      28998.729324    
05 Dec 2032 11:27:09.938    05 Dec 2032 19:30:52.995      29023.056689    
06 Dec 2032 11:23:50.856    06 Dec 2032 19:27:58.512      29047.655808    
07 Dec 2032 11:20:31.963    07 Dec 2032 19:25:04.488      29072.524830    
08 Dec 2032 11:17:13.253    08 Dec 2032 19:22:10.915      29097.662554    
09 Dec 2032 11:13:54.716    09 Dec 2032 19:19:17.785      29123.068158    
10 Dec 2032 11:10:36.347    10 Dec 2032 19:16:25.088      29148.740796    
11 Dec 2032 11:07:18.137    11 Dec 2032 19:13:32.816      29174.679232    
12 Dec 2032 11:04:00.080    12 Dec 2032 19:10:40.962      29200.881597    
13 Dec 2032 11:00:42.171    13 Dec 2032 19:07:49.517      29227.345351    
14 Dec 2032 10:57:24.404    14 Dec 2032 19:04:58.472      29254.067438    
15 Dec 2032 10:54:06.774    15 Dec 2032 19:02:07.819      29281.044567    
16 Dec 2032 10:50:49.277    16 Dec 2032 18:59:17.550      29308.273522    
17 Dec 2032 10:47:31.907    17 Dec 2032 18:56:27.658      29335.751421    
18 Dec 2032 10:44:14.659    18 Dec 2032 18:53:38.135      29363.475814    
19 Dec 2032 10:40:57.528    19 Dec 2032 18:50:48.973      29391.444681    
20 Dec 2032 10:37:40.509    20 Dec 2032 18:48:00.165      29419.656307    
21 Dec 2032 10:34:23.597    21 Dec 2032 18:45:11.706      29448.109107    
22 Dec 2032 10:31:06.785    22 Dec 2032 18:42:23.587      29476.801463    
23 Dec 2032 10:27:50.070    23 Dec 2032 18:39:35.802      29505.731586    
24 Dec 2032 10:24:33.446    24 Dec 2032 18:36:48.344      29534.897454    
25 Dec 2032 10:21:16.908    25 Dec 2032 18:34:01.205      29564.296770    
26 Dec 2032 10:18:00.451    26 Dec 2032 18:31:14.378      29593.926933    
27 Dec 2032 10:14:44.070    27 Dec 2032 18:28:27.855      29623.784960    
28 Dec 2032 10:11:27.761    28 Dec 2032 18:25:41.628      29653.867398    
29 Dec 2032 10:08:11.520    29 Dec 2032 18:22:55.690      29684.170245    
30 Dec 2032 10:04:55.341    30 Dec 2032 18:20:10.030      29714.688958    
31 Dec 2032 10:01:39.222    31 Dec 2032 18:17:24.640      29745.418622    
01 Jan 2033 09:58:23.156    01 Jan 2033 18:14:39.511      29776.354263    
02 Jan 2033 09:55:07.140    02 Jan 2033 18:11:54.631      29807.491268    
03 Jan 2033 09:51:51.168    03 Jan 2033 18:09:09.993      29838.825734    
04 Jan 2033 09:48:35.233    04 Jan 2033 18:06:25.588      29870.354592    
05 Jan 2033 09:45:19.331    05 Jan 2033 18:03:41.406      29902.075409    
06 Jan 2033 09:42:03.454    06 Jan 2033 18:00:57.440      29933.985953    
07 Jan 2033 09:38:47.598    07 Jan 2033 17:58:13.681      29966.083720    
08 Jan 2033 09:35:31.757    08 Jan 2033 17:55:30.123      29998.365629    
09 Jan 2033 09:32:15.927    09 Jan 2033 17:52:46.755      30030.827952    
10 Jan 2033 09:29:00.105    10 Jan 2033 17:50:03.572      30063.466457    
11 Jan 2033 09:25:44.287    11 Jan 2033 17:47:20.564      30096.276631    
12 Jan 2033 09:22:28.470    12 Jan 2033 17:44:37.724      30129.253947    
13 Jan 2033 09:19:12.650    13 Jan 2033 17:41:55.044      30162.394081    
14 Jan 2033 09:15:56.824    14 Jan 2033 17:39:12.517      30195.693045    
15 Jan 2033 09:12:40.988    15 Jan 2033 17:36:30.135      30229.147237    
16 Jan 2033 09:09:25.140    16 Jan 2033 17:33:47.893      30262.753407    
17 Jan 2033 09:06:09.275    17 Jan 2033 17:31:05.783      30296.508547    
18 Jan 2033 09:02:53.390    18 Jan 2033 17:28:23.799      30330.409771    
19 Jan 2033 08:59:37.481    19 Jan 2033 17:25:41.935      30364.454162    
20 Jan 2033 08:56:21.545    20 Jan 2033 17:23:00.183      30398.638657    
21 Jan 2033 08:53:05.578    21 Jan 2033 17:20:18.538      30432.959957    
22 Jan 2033 08:49:49.577    22 Jan 2033 17:17:36.991      30467.414496    
23 Jan 2033 08:46:33.538    23 Jan 2033 17:14:55.537      30501.998399    
24 Jan 2033 08:43:17.460    24 Jan 2033 17:12:14.167      30536.707454    
25 Jan 2033 08:40:01.338    25 Jan 2033 17:09:32.875      30571.537037    
26 Jan 2033 08:36:45.170    26 Jan 2033 17:06:51.652      30606.482061    
27 Jan 2033 08:33:28.954    27 Jan 2033 17:04:10.491      30641.536977    
28 Jan 2033 08:30:12.685    28 Jan 2033 17:01:29.381      30676.695906    
29 Jan 2033 08:26:56.361    29 Jan 2033 16:58:48.314      30711.952917    
30 Jan 2033 08:23:39.980    30 Jan 2033 16:56:07.282      30747.302455    
31 Jan 2033 08:20:23.535    31 Jan 2033 16:53:26.275      30782.739723    
01 Feb 2033 08:17:07.024    01 Feb 2033 16:50:45.285      30818.260819    
02 Feb 2033 08:13:50.441    02 Feb 2033 16:48:04.304      30853.862476    
03 Feb 2033 08:10:33.782    03 Feb 2033 16:45:23.324      30889.541523    
04 Feb 2033 08:07:17.043    04 Feb 2033 16:42:42.338      30925.294341    
05 Feb 2033 08:04:00.221    05 Feb 2033 16:40:01.338      30961.116603    
06 Feb 2033 08:00:43.312    06 Feb 2033 16:37:20.316      30997.003365    
07 Feb 2033 07:57:26.315    07 Feb 2033 16:34:39.264      31032.949347    
08 Feb 2033 07:54:09.227    08 Feb 2033 16:31:58.176      31068.949235    
09 Feb 2033 07:50:52.045    09 Feb 2033 16:29:17.043      31104.997887    
10 Feb 2033 07:47:34.769    10 Feb 2033 16:26:35.860      31141.090447    
11 Feb 2033 07:44:17.395    11 Feb 2033 16:23:54.618      31177.222410    
12 Feb 2033 07:40:59.922    12 Feb 2033 16:21:13.311      31213.389614    
13 Feb 2033 07:37:42.345    13 Feb 2033 16:18:31.934      31249.588186    
14 Feb 2033 07:34:24.665    14 Feb 2033 16:15:50.479      31285.814440    
15 Feb 2033 07:31:06.876    15 Feb 2033 16:13:08.941      31322.064772    
16 Feb 2033 07:27:48.978    16 Feb 2033 16:10:27.314      31358.335550    
17 Feb 2033 07:24:30.967    17 Feb 2033 16:07:45.590      31394.623013    
18 Feb 2033 07:21:12.842    18 Feb 2033 16:05:03.765      31430.923184    
19 Feb 2033 07:17:54.600    19 Feb 2033 16:02:21.831      31467.231811    
20 Feb 2033 07:14:36.238    20 Feb 2033 15:59:39.782      31503.544338    
21 Feb 2033 07:11:17.755    21 Feb 2033 15:56:57.611      31539.855871    
22 Feb 2033 07:07:59.148    22 Feb 2033 15:54:15.309      31576.161164    
23 Feb 2033 07:04:40.416    23 Feb 2033 15:51:32.871      31612.454597    
24 Feb 2033 07:01:21.557    24 Feb 2033 15:48:50.287      31648.730209    
25 Feb 2033 06:58:02.568    25 Feb 2033 15:46:07.549      31684.981800    
26 Feb 2033 06:54:43.446    26 Feb 2033 15:43:24.650      31721.203166    
27 Feb 2033 06:51:24.190    27 Feb 2033 15:40:41.579      31757.388452    
28 Feb 2033 06:48:04.796    28 Feb 2033 15:37:58.329      31793.532513    
01 Mar 2033 06:44:45.260    01 Mar 2033 15:35:14.891      31829.631050    
02 Mar 2033 06:41:25.579    02 Mar 2033 15:32:31.259      31865.680362    
03 Mar 2033 06:38:05.747    03 Mar 2033 15:29:47.424      31901.676789    
04 Mar 2033 06:34:45.762    04 Mar 2033 15:27:03.379      31937.616133    
05 Mar 2033 06:31:25.622    05 Mar 2033 15:24:19.115      31973.493424    
06 Mar 2033 06:28:05.324    06 Mar 2033 15:21:34.627      32009.303088    
07 Mar 2033 06:24:44.866    07 Mar 2033 15:18:49.906      32045.039362    
08 Mar 2033 06:21:24.247    08 Mar 2033 15:16:04.944      32080.696642    
09 Mar 2033 06:18:03.465    09 Mar 2033 15:13:19.735      32116.269656    
10 Mar 2033 06:14:42.519    10 Mar 2033 15:10:34.272      32151.753493    
11 Mar 2033 06:11:21.405    11 Mar 2033 15:07:48.549      32187.143576    
12 Mar 2033 06:08:00.123    12 Mar 2033 15:05:02.559      32222.435628    
13 Mar 2033 06:04:38.670    13 Mar 2033 15:02:16.295      32257.625608    
14 Mar 2033 06:01:17.043    14 Mar 2033 14:59:29.753      32292.709611    
15 Mar 2033 05:57:55.242    15 Mar 2033 14:56:42.925      32327.683765    
16 Mar 2033 05:54:33.262    16 Mar 2033 14:53:55.806      32362.544145    
17 Mar 2033 05:51:11.103    17 Mar 2033 14:51:08.390      32397.286694    
18 Mar 2033 05:47:48.763    18 Mar 2033 14:48:20.670      32431.907142    
19 Mar 2033 05:44:26.238    19 Mar 2033 14:45:32.639      32466.400936    
20 Mar 2033 05:41:03.528    20 Mar 2033 14:42:44.291      32500.763186    
21 Mar 2033 05:37:40.630    21 Mar 2033 14:39:55.619      32534.988662    
22 Mar 2033 05:34:17.543    22 Mar 2033 14:37:06.615      32569.071790    
23 Mar 2033 05:30:54.264    23 Mar 2033 14:34:17.271      32603.006695    
24 Mar 2033 05:27:30.792    24 Mar 2033 14:31:27.579      32636.787272    
25 Mar 2033 05:24:07.124    25 Mar 2033 14:28:37.531      32670.407300    
26 Mar 2033 05:20:43.257    26 Mar 2033 14:25:47.118      32703.860652    
27 Mar 2033 05:17:19.190    27 Mar 2033 05:34:04.943      1005.7525927    


Number of events : 367


