Results/Reports/Eclipses.csv

Spacecraft: JupiterExpress_Finite

Start Time (UTC)            Stop Time (UTC)               Duration (s)    Occ Body        Type        Event Number  Total Duration (s)
27 Mar 2032 05:34:04.943    27 Mar 2032 06:05:00.298      1855.3546380    Jupiter         Umbra       1             1860.8136351
27 Mar 2032 06:05:00.298    27 Mar 2032 06:05:05.757      5.4589971201    Jupiter         Penumbra    1             1860.8136351
27 Mar 2032 17:23:01.294    27 Mar 2032 18:00:48.291      2266.9974949    Jupiter         Umbra       2             2266.9974949
28 Mar 2032 05:18:52.861    28 Mar 2032 05:56:36.551      2263.6901036    Jupiter         Umbra       3             2263.6901036
28 Mar 2032 17:14:42.073    28 Mar 2032 17:52:25.109      2263.0358770    Jupiter         Umbra       4             2263.0358770
29 Mar 2032 05:10:32.251    29 Mar 2032 05:48:13.499      2261.2473092    Jupiter         Umbra       5             2266.7496210
29 Mar 2032 05:48:13.499    29 Mar 2032 05:48:19.001      5.5023118621    Jupiter         Penumbra    5             2266.7496210
29 Mar 2032 17:06:21.885    29 Mar 2032 17:44:02.054      2260.1687022    Jupiter         Umbra       6             2265.6814049
29 Mar 2032 17:44:02.054    29 Mar 2032 17:44:07.567      5.5127026979    Jupiter         Penumbra    6             2265.6814049
30 Mar 2032 05:02:07.816    30 Mar 2032 05:39:51.137      2263.3207753    Jupiter         Umbra       7             2268.8326444
30 Mar 2032 05:39:51.137    30 Mar 2032 05:39:56.649      5.5118691176    Jupiter         Penumbra    7             2268.8326444
30 Mar 2032 16:57:53.471    30 Mar 2032 17:35:40.124      2266.6539259    Jupiter         Umbra       8             2272.1591314
30 Mar 2032 17:35:40.124    30 Mar 2032 17:35:45.630      5.5052055046    Jupiter         Penumbra    8             2272.1591314
31 Mar 2032 04:53:42.126    31 Mar 2032 05:31:28.666      2266.5394972    Jupiter         Umbra       9             2266.5394972
31 Mar 2032 16:49:30.414    31 Mar 2032 17:27:17.326      2266.9124477    Jupiter         Umbra       10            2266.9124477
01 Apr 2032 04:45:14.838    01 Apr 2032 04:45:17.047      2.2093485575    Jupiter         Penumbra    11            2271.3241342
01 Apr 2032 04:45:17.047    01 Apr 2032 05:23:06.162      2269.1147856    Jupiter         Umbra       11            2271.3241342
01 Apr 2032 16:41:03.730    01 Apr 2032 16:41:05.930      2.2001200821    Jupiter         Penumbra    12            2276.3715400
01 Apr 2032 16:41:05.930    01 Apr 2032 17:18:54.599      2268.6693809    Jupiter         Umbra       12            2276.3715400
01 Apr 2032 17:18:54.599    01 Apr 2032 17:19:00.102      5.5020390311    Jupiter         Penumbra    12            2276.3715400
02 Apr 2032 04:36:54.459    02 Apr 2032 04:36:56.660      2.2011975758    Jupiter         Penumbra    13            2273.8892430
02 Apr 2032 04:36:56.660    02 Apr 2032 05:14:42.840      2266.1798777    Jupiter         Umbra       13            2273.8892430
02 Apr 2032 05:14:42.840    02 Apr 2032 05:14:48.348      5.5081676692    Jupiter         Penumbra    13            2273.8892430
02 Apr 2032 16:32:43.453    02 Apr 2032 16:32:45.649      2.1965141874    Jupiter         Penumbra    14            2273.4163427
02 Apr 2032 16:32:45.649    02 Apr 2032 17:10:31.359      2265.7099057    Jupiter         Umbra       14            2273.4163427
02 Apr 2032 17:10:31.359    02 Apr 2032 17:10:36.869      5.5099228397    Jupiter         Penumbra    14            2273.4163427
03 Apr 2032 04:28:33.083    03 Apr 2032 04:28:35.273      2.1894161822    Jupiter         Penumbra    15            2272.1104417
03 Apr 2032 04:28:35.273    03 Apr 2032 05:06:19.684      2264.4110204    Jupiter         Umbra       15            2272.1104417
03 Apr 2032 05:06:19.684    03 Apr 2032 05:06:25.194      5.5100051919    Jupiter         Penumbra    15            2272.1104417
03 Apr 2032 16:24:28.924    03 Apr 2032 17:02:07.422      2258.4980740    Jupiter         Umbra       16            2258.4980740
04 Apr 2032 04:20:22.985    04 Apr 2032 04:57:55.213      2252.2289425    Jupiter         Umbra       17            2252.2289425
04 Apr 2032 16:16:14.557    04 Apr 2032 16:53:43.376      2248.8192201    Jupiter         Umbra       18            2254.3724634
04 Apr 2032 16:53:43.376    04 Apr 2032 16:53:48.929      5.5532432394    Jupiter         Penumbra    18            2254.3724634
05 Apr 2032 04:12:04.448    05 Apr 2032 04:12:06.686      2.2379052825    Jupiter         Penumbra    19            2252.5200582
05 Apr 2032 04:12:06.686    05 Apr 2032 04:49:31.402      2244.7155258    Jupiter         Umbra       19            2252.5200582
05 Apr 2032 04:49:31.402    05 Apr 2032 04:49:36.968      5.5666270433    Jupiter         Penumbra    19            2252.5200582
05 Apr 2032 16:07:59.320    05 Apr 2032 16:45:19.430      2240.1099942    Jupiter         Umbra       20            2245.6947111
05 Apr 2032 16:45:19.430    05 Apr 2032 16:45:25.014      5.5847168667    Jupiter         Penumbra    20            2245.6947111
06 Apr 2032 04:03:48.417    06 Apr 2032 04:41:08.047      2239.6298715    Jupiter         Umbra       21            2239.6298715
06 Apr 2032 15:59:33.494    06 Apr 2032 15:59:35.746      2.2524256725    Jupiter         Penumbra    22            2243.3252843
06 Apr 2032 15:59:35.746    06 Apr 2032 16:36:56.819      2241.0728586    Jupiter         Umbra       22            2243.3252843
07 Apr 2032 03:55:23.535    07 Apr 2032 03:55:25.788      2.2528317757    Jupiter         Penumbra    23            2241.5868891
07 Apr 2032 03:55:25.788    07 Apr 2032 04:32:45.122      2239.3340573    Jupiter         Umbra       23            2241.5868891
07 Apr 2032 15:51:14.021    07 Apr 2032 15:51:16.280      2.2590201348    Jupiter         Penumbra    24            2245.0234652
07 Apr 2032 15:51:16.280    07 Apr 2032 16:28:33.434      2237.1539099    Jupiter         Umbra       24            2245.0234652
07 Apr 2032 16:28:33.434    07 Apr 2032 16:28:39.044      5.6105352240    Jupiter         Penumbra    24            2245.0234652
08 Apr 2032 03:47:04.382    08 Apr 2032 04:24:22.095      2237.7136244    Jupiter         Umbra       25            2243.3267679
08 Apr 2032 04:24:22.095    08 Apr 2032 04:24:27.708      5.6131434627    Jupiter         Penumbra    25            2243.3267679
08 Apr 2032 15:42:53.498    08 Apr 2032 16:20:10.503      2237.0052478    Jupiter         Umbra       26            2242.6208738
08 Apr 2032 16:20:10.503    08 Apr 2032 16:20:16.119      5.6156259729    Jupiter         Penumbra    26            2242.6208738
09 Apr 2032 03:38:44.886    09 Apr 2032 04:15:58.604      2233.7179096    Jupiter         Umbra       27            2233.7179096
09 Apr 2032 15:34:34.601    09 Apr 2032 16:11:47.030      2232.4291731    Jupiter         Umbra       28            2232.4291731
10 Apr 2032 03:30:23.377    10 Apr 2032 04:07:35.516      2232.1388804    Jupiter         Umbra       29            2232.1388804
10 Apr 2032 15:26:13.406    10 Apr 2032 15:26:15.667      2.2615931695    Jupiter         Penumbra    30            2235.6424082
10 Apr 2032 15:26:15.667    10 Apr 2032 16:03:23.402      2227.7343698    Jupiter         Umbra       30            2235.6424082
10 Apr 2032 16:03:23.402    10 Apr 2032 16:03:29.048      5.6464451831    Jupiter         Penumbra    30            2235.6424082
11 Apr 2032 03:22:09.374    11 Apr 2032 03:59:11.174      2221.8000434    Jupiter         Umbra       31            2227.4663386
11 Apr 2032 03:59:11.174    11 Apr 2032 03:59:16.840      5.6662952062    Jupiter         Penumbra    31            2227.4663386
11 Apr 2032 15:18:00.303    11 Apr 2032 15:54:59.433      2219.1292289    Jupiter         Umbra       32            2224.8094335
11 Apr 2032 15:54:59.433    11 Apr 2032 15:55:05.113      5.6802045554    Jupiter         Penumbra    32            2224.8094335
12 Apr 2032 03:13:50.665    12 Apr 2032 03:50:47.716      2217.0516822    Jupiter         Umbra       33            2217.0516822
12 Apr 2032 15:09:42.005    12 Apr 2032 15:46:35.891      2213.8864252    Jupiter         Umbra       34            2213.8864252
13 Apr 2032 03:05:30.246    13 Apr 2032 03:42:24.656      2214.4097250    Jupiter         Umbra       35            2220.1256314
13 Apr 2032 03:42:24.656    13 Apr 2032 03:42:30.372      5.7159064338    Jupiter         Penumbra    35            2220.1256314
13 Apr 2032 15:01:13.029    13 Apr 2032 15:01:15.331      2.3023267044    Jupiter         Penumbra    36            2226.5251328
13 Apr 2032 15:01:15.331    13 Apr 2032 15:38:13.842      2218.5110895    Jupiter         Umbra       36            2226.5251328
13 Apr 2032 15:38:13.842    13 Apr 2032 15:38:19.554      5.7117165299    Jupiter         Penumbra    36            2226.5251328
14 Apr 2032 02:57:02.409    14 Apr 2032 03:34:02.602      2220.1923072    Jupiter         Umbra       37            2225.9020353
14 Apr 2032 03:34:02.602    14 Apr 2032 03:34:08.311      5.7097281329    Jupiter         Penumbra    37            2225.9020353
14 Apr 2032 14:52:51.002    14 Apr 2032 15:29:51.174      2220.1724590    Jupiter         Umbra       38            2225.8864123
14 Apr 2032 15:29:51.174    14 Apr 2032 15:29:56.888      5.7139532408    Jupiter         Penumbra    38            2225.8864123
15 Apr 2032 02:48:37.304    15 Apr 2032 03:25:40.132      2222.8283168    Jupiter         Umbra       39            2228.5397090
15 Apr 2032 03:25:40.132    15 Apr 2032 03:25:45.844      5.7113921503    Jupiter         Penumbra    39            2228.5397090
15 Apr 2032 14:44:23.664    15 Apr 2032 15:21:28.967      2225.3036479    Jupiter         Umbra       40            2225.3036479
16 Apr 2032 02:40:12.948    16 Apr 2032 03:17:17.326      2224.3784322    Jupiter         Umbra       41            2224.3784322
16 Apr 2032 14:36:01.704    16 Apr 2032 15:13:05.852      2224.1483308    Jupiter         Umbra       42            2224.1483308
17 Apr 2032 02:31:48.918    17 Apr 2032 03:08:54.566      2225.6482371    Jupiter         Umbra       43            2231.3535013
17 Apr 2032 03:08:54.566    17 Apr 2032 03:09:00.271      5.7052641409    Jupiter         Penumbra    43            2231.3535013
17 Apr 2032 14:27:39.365    17 Apr 2032 15:04:42.660      2223.2949539    Jupiter         Umbra       44            2229.0023680
17 Apr 2032 15:04:42.660    17 Apr 2032 15:04:48.367      5.7074140990    Jupiter         Penumbra    44            2229.0023680
18 Apr 2032 02:23:32.927    18 Apr 2032 03:00:30.326      2217.3988162    Jupiter         Umbra       45            2223.1212574
18 Apr 2032 03:00:30.326    18 Apr 2032 03:00:36.048      5.7224411750    Jupiter         Penumbra    45            2223.1212574
18 Apr 2032 14:19:24.725    18 Apr 2032 14:56:18.359      2213.6339214    Jupiter         Umbra       46            2213.6339214
19 Apr 2032 02:15:13.244    19 Apr 2032 02:15:15.502      2.2587661631    Jupiter         Penumbra    47            2213.2561605
19 Apr 2032 02:15:15.502    19 Apr 2032 02:52:06.500      2210.9973944    Jupiter         Umbra       47            2213.2561605
19 Apr 2032 14:11:08.035    19 Apr 2032 14:47:54.357      2206.3217804    Jupiter         Umbra       48            2212.0821017
19 Apr 2032 14:47:54.357    19 Apr 2032 14:48:00.117      5.7603213005    Jupiter         Penumbra    48            2212.0821017
20 Apr 2032 02:06:58.872    20 Apr 2032 02:43:42.609      2203.7362684    Jupiter         Umbra       49            2209.5107649
20 Apr 2032 02:43:42.609    20 Apr 2032 02:43:48.383      5.7744965656    Jupiter         Penumbra    49            2209.5107649
20 Apr 2032 14:02:43.717    20 Apr 2032 14:02:45.993      2.2763241548    Jupiter         Penumbra    50            2213.5071009
20 Apr 2032 14:02:45.993    20 Apr 2032 14:39:31.448      2205.4552838    Jupiter         Umbra       50            2213.5071009
20 Apr 2032 14:39:31.448    20 Apr 2032 14:39:37.224      5.7754929643    Jupiter         Penumbra    50            2213.5071009
21 Apr 2032 01:58:34.247    21 Apr 2032 02:35:19.969      2205.7226939    Jupiter         Umbra       51            2211.4983340
21 Apr 2032 02:35:19.969    21 Apr 2032 02:35:25.745      5.7756400667    Jupiter         Penumbra    51            2211.4983340
21 Apr 2032 13:54:22.788    21 Apr 2032 13:54:25.060      2.2721619112    Jupiter         Penumbra    52            2205.3010029
21 Apr 2032 13:54:25.060    21 Apr 2032 14:31:08.089      2203.0288410    Jupiter         Umbra       52            2205.3010029
22 Apr 2032 01:50:14.183    22 Apr 2032 02:26:56.553      2202.3697814    Jupiter         Umbra       53            2202.3697814
22 Apr 2032 13:46:02.270    22 Apr 2032 14:22:45.098      2202.8288704    Jupiter         Umbra       54            2202.8288704
23 Apr 2032 01:41:53.209    23 Apr 2032 02:18:33.114      2199.9044426    Jupiter         Umbra       55            2205.7019236
23 Apr 2032 02:18:33.114    23 Apr 2032 02:18:38.911      5.7974810014    Jupiter         Penumbra    55            2205.7019236
23 Apr 2032 13:37:44.581    23 Apr 2032 14:14:21.149      2196.5679627    Jupiter         Umbra       56            2202.3770196
23 Apr 2032 14:14:21.149    23 Apr 2032 14:14:26.958      5.8090568287    Jupiter         Penumbra    56            2202.3770196
24 Apr 2032 01:33:33.649    24 Apr 2032 02:10:09.567      2195.9186307    Jupiter         Umbra       57            2201.7312796
24 Apr 2032 02:10:09.567    24 Apr 2032 02:10:15.380      5.8126488933    Jupiter         Penumbra    57            2201.7312796
24 Apr 2032 13:29:24.621    24 Apr 2032 14:05:57.540      2192.9188048    Jupiter         Umbra       58            2192.9188048
25 Apr 2032 01:25:19.383    25 Apr 2032 02:01:44.894      2185.5102514    Jupiter         Umbra       59            2191.3492524
25 Apr 2032 02:01:44.894    25 Apr 2032 02:01:50.733      5.8390009683    Jupiter         Penumbra    59            2191.3492524
25 Apr 2032 13:21:13.039    25 Apr 2032 13:57:32.552      2179.5128079    Jupiter         Umbra       60            2185.3736021
25 Apr 2032 13:57:32.552    25 Apr 2032 13:57:38.413      5.8607941261    Jupiter         Penumbra    60            2185.3736021
26 Apr 2032 01:17:04.506    26 Apr 2032 01:53:20.562      2176.0564327    Jupiter         Umbra       61            2181.9321207
26 Apr 2032 01:53:20.562    26 Apr 2032 01:53:26.438      5.8756879298    Jupiter         Penumbra    61            2181.9321207
26 Apr 2032 13:12:54.902    26 Apr 2032 13:12:57.242      2.3400993319    Jupiter         Penumbra    62            2173.4171837
26 Apr 2032 13:12:57.242    26 Apr 2032 13:49:08.320      2171.0770844    Jupiter         Umbra       62            2173.4171837
27 Apr 2032 01:08:49.046    27 Apr 2032 01:44:56.362      2167.3160217    Jupiter         Umbra       63            2167.3160217

Number of individual events : 114
Number of total events      : 63
Maximum duration (s)        :   2276.3715400
Maximum duration at the 12nd eclipse.


